,CityID,Name,Country,Lat,Lng,Max Temp,Humidity,Cloudiness,Wind Speed (mph),Date_Time
0,4020109,Atuona,PF,-9.8,-139.03,80.02,73,29,14.65,1573883089
1,3534915,Trinidad,CU,21.81,-79.98,73.4,100,43,3.36,1573883089
2,1015776,Bredasdorp,ZA,-34.53,20.04,62.6,93,91,17.22,1573883089
3,3833367,Ushuaia,AR,-54.81,-68.31,42.8,87,40,5.82,1573883089
4,3896218,Castro,CL,-42.48,-73.76,50.0,93,75,9.17,1573883089
5,628155,Haradok,BY,55.46,29.99,37.4,93,90,8.95,1573883089
6,964432,Port Alfred,ZA,-33.59,26.89,66.99,91,10,3.0,1573883089
7,481548,Troitsko-Pechorsk,RU,62.71,56.19,30.51,87,83,9.15,1573883089
8,2158767,Mareeba,AU,-16.99,145.42,91.0,51,6,13.87,1573883089
9,5688025,Bismarck,US,46.81,-100.78,32.0,94,90,8.05,1573883089
10,3372707,Ribeira Grande,PT,38.52,-28.7,58.1,65,70,1.19,1573883089
11,1490256,Talnakh,RU,69.49,88.39,-9.4,83,11,4.47,1573883090
12,615460,Pitsunda,GE,43.16,40.34,51.01,52,0,4.47,1573883090
13,3874787,Punta Arenas,CL,-53.16,-70.91,41.0,86,40,13.87,1573883090
14,3686134,Cogua,CO,5.06,-73.98,53.6,93,20,4.7,1573883090
15,2381334,Atar,MR,20.52,-13.05,71.78,32,84,10.76,1573883090
16,5848280,Kapaa,US,22.08,-159.32,78.8,88,90,4.7,1573883090
17,3369157,Cape Town,ZA,-33.93,18.42,66.99,77,20,29.97,1573883089
18,5859699,College,US,64.86,-147.8,6.8,54,90,6.93,1573883090
19,2077963,Albany,AU,-35.02,117.88,78.8,54,13,16.11,1573883090
20,4030556,Rikitea,PF,-23.12,-134.97,73.53,83,91,20.83,1573883090
21,1006984,East London,ZA,-33.02,27.91,66.2,100,90,8.05,1573883090
22,2194098,Ahipara,NZ,-35.17,173.16,69.01,76,0,9.69,1573883090
23,1798632,Pingyin,CN,36.28,116.45,65.61,29,0,7.18,1573883090
24,1244926,Hambantota,LK,6.12,81.12,86.0,84,40,4.7,1573883090
25,2457163,Gao,ML,16.28,-0.04,69.71,19,0,0.94,1573883090
26,2206939,Bluff,NZ,-46.6,168.33,54.0,78,93,11.01,1573883091
27,1142264,Farah,AF,32.37,62.11,57.49,26,68,5.57,1573883091
28,3374333,Praia,CV,14.92,-23.51,73.4,73,75,8.05,1573883091
29,3671519,Puerto Carreno,CO,6.19,-67.49,76.6,89,100,3.67,1573883091
30,214575,Kampene,CD,-3.59,26.67,72.88,96,100,0.83,1573883091
31,4032243,Vaini,TO,-21.2,-175.2,75.2,73,20,12.75,1573883091
32,2121385,Severo-Kurilsk,RU,50.68,156.12,21.83,66,76,13.96,1573883091
33,2028164,Deputatskiy,RU,69.3,139.9,-7.98,99,70,0.83,1573883091
34,650225,Kuopio,FI,62.89,27.68,30.2,92,90,4.7,1573883091
35,2122574,Ola,RU,59.58,151.3,23.54,64,100,28.9,1573883091
36,3652764,Puerto Ayora,EC,-0.74,-90.35,70.0,89,6,5.99,1573883091
37,1252783,Yarada,IN,17.65,83.27,86.0,55,28,4.7,1573883091
38,1283285,Jumla,NP,29.28,82.18,59.23,18,100,3.98,1573883091
39,6185377,Yellowknife,CA,62.45,-114.38,8.6,84,90,9.17,1573882823
40,2267254,Lagoa,PT,37.14,-8.45,48.99,70,0,11.41,1573883092
41,4031637,Lavrentiya,RU,65.58,-170.99,26.01,73,26,25.03,1573883092
42,5563839,Fortuna,US,40.6,-124.16,55.99,100,90,3.36,1573883092
43,3418910,Upernavik,GL,72.79,-56.15,24.49,92,100,16.02,1573883092
44,2120591,Tilichiki,RU,60.47,166.1,8.46,76,97,9.82,1573883092
45,1500399,Lokosovo,RU,61.13,74.84,12.65,92,100,12.48,1573883092
46,3466165,Cidreira,BR,-30.17,-50.22,67.35,74,24,13.38,1573883092
47,1737486,Bintulu,MY,3.17,113.03,87.8,74,75,9.17,1573883092
48,2447513,Arlit,NE,18.74,7.39,74.79,15,0,7.72,1573883092
49,2163355,Hobart,AU,-42.88,147.33,57.2,33,75,21.92,1573882804
50,1684292,Taguisa,PH,6.7,124.04,82.08,67,7,5.37,1573883092
51,3530097,Tres Picos,MX,16.23,-93.58,66.63,81,44,9.24,1573883153
52,6170031,Tuktoyaktuk,CA,69.44,-133.03,-11.2,83,75,5.82,1573883153
53,4252975,Barrow,US,39.51,-90.4,32.0,92,1,3.56,1573883154
54,3027487,Chalons-en-Champagne,FR,48.95,4.37,36.0,100,75,13.87,1573883154
55,6050066,La Ronge,CA,55.1,-105.3,24.8,85,90,5.82,1573882968
56,2074865,Carnarvon,AU,-24.87,113.63,82.4,61,0,14.99,1573883107
57,3366880,Hermanus,ZA,-34.42,19.24,66.99,95,100,3.0,1573883154
58,964420,Port Elizabeth,ZA,-33.92,25.57,66.2,93,75,10.29,1573883154
59,3370903,Jamestown,SH,-15.94,-5.72,68.38,79,85,16.2,1573883154
60,6320062,Vila Velha,BR,-3.71,-38.6,80.6,74,20,10.29,1573883154
61,2172797,Cairns,AU,-16.92,145.77,91.0,51,27,13.87,1573883154
62,2075265,Busselton,AU,-33.64,115.35,100.0,19,0,11.48,1573883155
63,3863379,Mar del Plata,AR,-46.43,-67.52,55.04,37,94,26.24,1573883155
64,1636022,Martapura,ID,-3.41,114.85,91.4,55,40,5.82,1573883155
65,371745,Kutum,SD,14.2,24.66,70.05,40,0,9.78,1573883155
66,4011743,Constitucion,MX,23.99,-104.67,50.36,79,0,2.66,1573883155
67,2318921,Wukari,NG,7.87,9.78,77.04,88,98,4.03,1573883155
68,546105,Nikolskoye,RU,59.7,30.79,37.99,93,75,8.95,1573883155
69,3985710,Cabo San Lucas,MX,22.89,-109.91,75.0,78,5,4.54,1573883140
70,1862555,Hirado,JP,33.32,129.49,68.0,59,0,4.7,1573883155
71,1127547,Sangin,AF,32.07,64.85,60.85,23,88,0.4,1573883155
72,4021858,Guerrero Negro,MX,27.97,-114.04,64.18,87,54,8.84,1573883155
73,2126710,Beringovskiy,RU,63.05,179.32,30.0,76,100,22.06,1573883155
74,1005781,Elliot,ZA,-31.33,27.85,63.1,72,41,3.47,1573883155
75,3924679,Vilhena,BR,-12.74,-60.15,69.24,96,99,2.19,1573883155
76,2314705,Kikwit,CD,-5.04,18.82,74.39,90,100,1.12,1573883155
77,3421719,Narsaq,GL,60.91,-46.05,23.0,41,58,18.34,1573883156
78,3672086,Pizarro,CO,4.95,-77.37,77.29,85,100,3.69,1573883156
79,1850144,Nishihara,JP,35.74,139.53,71.01,48,20,3.36,1573883156
80,5983720,Iqaluit,CA,63.75,-68.52,17.6,61,90,2.24,1573883156
81,2123814,Leningradskiy,RU,69.38,178.42,15.94,79,0,8.72,1573883156
82,3424607,Tasiilaq,GL,65.61,-37.64,28.4,63,98,9.17,1573883156
83,6316343,Alta Floresta,BR,-9.87,-56.08,70.0,96,36,2.13,1573883156
84,2132606,Samarai,PG,-10.62,150.67,79.05,82,71,8.08,1573883156
85,3147441,Lindas,NO,60.74,5.16,37.99,74,100,6.93,1573883156
86,3548993,Los Palacios,CU,22.59,-83.25,73.6,92,59,8.39,1573883156
87,3883457,Lebu,CL,-37.62,-73.65,54.95,93,93,0.45,1573883156
88,5880568,Bethel,US,60.79,-161.76,12.2,66,1,28.86,1573883156
89,4267710,Sitka,US,37.17,-99.65,46.81,50,30,11.81,1573883157
90,1661950,Ban Nahin,LA,18.24,104.21,85.89,52,0,3.96,1573883157
91,2036653,Hunchun,CN,42.86,130.36,29.86,23,0,15.9,1573883157
92,3423146,Ilulissat,GL,69.22,-51.1,28.4,63,98,13.87,1573883157
93,2126199,Cherskiy,RU,68.75,161.3,2.1,95,100,1.54,1573883157
94,148105,Hadrut,AZ,39.52,47.03,36.0,88,89,4.47,1573883157
95,5882953,Aklavik,CA,68.22,-135.01,-13.0,75,90,2.24,1573883157
96,2017155,Saskylakh,RU,71.97,114.09,-11.47,96,96,6.44,1573883157
97,2152668,Portland,AU,-33.35,149.98,80.01,54,67,5.01,1573883157
98,2112802,Hasaki,JP,35.73,140.83,68.0,55,20,9.17,1573883119
99,1644605,Galesong,ID,-5.32,119.37,93.2,49,20,11.41,1573883157
100,2110227,Butaritari,KI,3.07,172.79,84.97,73,100,12.35,1573883157
101,3471451,Arraial do Cabo,BR,-22.97,-42.02,72.19,85,98,19.6,1573883218
102,1128239,Rudbar,AF,30.15,62.6,63.81,24,12,4.21,1573883218
103,986717,Kruisfontein,ZA,-34.0,24.73,68.31,70,63,6.42,1573883219
104,4407665,Kodiak,US,39.95,-94.76,37.99,59,1,8.05,1573883219
105,2514651,Los Llanos de Aridane,ES,28.66,-17.92,64.4,77,75,17.22,1573883219
106,4035715,Avarua,CK,-21.21,-159.78,77.0,88,2,6.93,1573883219
107,491019,Sol-Iletsk,RU,51.16,55.0,32.83,58,42,5.61,1573883219
108,1786538,Yining,CN,29.04,114.56,81.0,33,4,2.06,1573883219
109,4031574,Provideniya,RU,64.42,-173.23,20.59,92,100,15.03,1573883219
110,1863018,Hatsukaichi,JP,34.36,132.28,66.2,59,20,13.87,1573883219
111,3443061,Chuy,UY,-33.69,-53.46,56.46,89,0,3.11,1573883219
112,3132644,Varhaug,NO,58.61,5.65,44.01,93,75,2.24,1573883219
113,3445831,Uberlandia,BR,-18.92,-48.28,68.25,89,100,1.99,1573883102
114,1855540,Naze,JP,28.37,129.48,73.4,56,20,9.17,1573883219
115,2334327,Kishi,NG,9.08,3.85,72.64,56,27,1.57,1573883220
116,934322,Mahebourg,MU,-20.41,57.7,78.8,69,75,17.22,1573883220
117,3034640,Bastia,FR,42.7,9.45,51.8,62,75,9.17,1573883220
118,523198,Navashino,RU,55.54,42.19,32.45,86,87,12.71,1573883220
119,1509844,Boguchany,RU,58.38,97.46,-6.9,79,98,3.0,1573883220
120,4034307,Mahina,PF,-17.51,-149.49,82.4,65,75,4.7,1573883220
121,779683,Hammerfest,NO,70.66,23.68,30.2,86,64,6.93,1573883220
122,576093,Blagoyevo,RU,63.37,47.92,21.43,97,62,4.9,1573883220
123,3458498,Linhares,BR,-19.38,-40.06,70.99,98,100,3.02,1573883221
124,2126682,Bilibino,RU,68.06,166.44,-1.32,55,1,1.63,1573883221
125,1516048,Hovd,MN,48.01,91.64,-0.6,66,100,9.42,1573882977
126,6165406,Thompson,CA,55.74,-97.86,10.4,78,90,6.93,1573883221
127,3421765,Nanortalik,GL,60.14,-45.24,28.69,88,98,6.08,1573883221
128,921786,Mitsamiouli,KM,-11.38,43.28,87.8,58,20,8.05,1573883221
129,2125693,Evensk,RU,61.92,159.24,13.98,65,25,15.08,1573883221
130,2126123,Chokurdakh,RU,70.62,147.9,-4.09,97,94,4.21,1573883221
131,2281120,Tabou,CI,4.42,-7.36,73.36,95,85,1.99,1573883221
132,2411397,Georgetown,SH,-7.93,-14.42,74.8,81,100,15.77,1573883221
133,2022572,Khatanga,RU,71.98,102.47,-10.91,93,85,1.54,1573883221
134,1623502,Sabang,ID,1.17,120.82,85.03,49,1,2.33,1573883221
135,7522928,San Andres,CO,8.22,-76.58,70.02,99,100,2.59,1573883221
136,3831208,Qaanaaq,GL,77.48,-69.36,6.55,76,100,8.61,1573883221
137,2450849,Sokolo,ML,14.74,-6.12,76.41,20,27,8.01,1573883221
138,1337605,Mahibadhoo,MV,3.78,72.97,80.47,85,86,20.29,1573883222
139,5811696,Spokane,US,47.66,-117.42,39.99,93,90,7.7,1573882955
140,2092164,Lorengau,PG,-2.02,147.27,84.61,69,32,2.13,1573883222
141,1835848,Seoul,KR,37.57,126.98,53.6,66,1,4.7,1573883222
142,2439376,Tahoua,NE,14.89,5.26,75.2,18,33,6.93,1573883222
143,1721491,Cabra,PH,13.89,120.05,83.7,69,90,7.14,1573883222
144,2155415,New Norfolk,AU,-42.78,147.06,57.2,33,75,21.92,1573883222
145,2015306,Tiksi,RU,71.64,128.87,-2.58,98,65,2.46,1573883222
146,2122090,Pevek,RU,69.7,170.27,6.42,59,0,0.78,1573883222
147,286621,Salalah,OM,17.01,54.1,80.6,57,20,2.24,1573883222
148,525426,Sobolevo,RU,54.43,31.9,36.91,86,66,10.89,1573883222
149,469960,Vytegra,RU,61.01,36.45,34.57,95,100,4.05,1573883222
150,5947866,Elliot Lake,CA,46.37,-82.65,10.4,78,1,11.41,1573883222
151,6167817,Torbay,CA,47.66,-52.73,42.01,80,75,33.33,1573883222
152,1106677,Bambous Virieux,MU,-20.34,57.76,78.8,69,75,17.22,1573883283
153,2280316,Toumodi,CI,6.56,-5.02,73.4,100,75,2.13,1573883283
154,1282256,Hithadhoo,MV,-0.6,73.08,82.65,76,95,13.24,1573883284
155,492860,Sindor,RU,62.87,51.9,29.12,90,90,9.37,1573883284
156,2208248,Kaitangata,NZ,-46.28,169.85,51.01,81,47,1.01,1573883284
157,1786764,Yichang,CN,30.77,111.32,69.42,42,100,6.46,1573883284
158,3374346,Ponta do Sol,CV,17.2,-25.09,73.4,73,40,10.29,1573883284
159,1635283,Metro,ID,-5.11,105.31,94.62,36,37,6.35,1573883190
160,4413802,Waynesville,US,37.83,-92.2,33.8,47,1,3.2,1573883284
161,4034551,Faanui,PF,-16.48,-151.75,79.09,83,39,19.46,1573883284
162,3897347,Calama,CL,-22.46,-68.93,50.0,25,64,11.41,1573883284
163,5563397,Eureka,US,40.8,-124.16,55.99,100,90,3.36,1573883190
164,5927969,Corner Brook,CA,48.95,-57.95,37.99,86,90,9.17,1573883284
165,241131,Victoria,SC,-4.62,55.45,84.2,79,40,3.36,1573883285
166,2501152,Constantine,DZ,36.36,6.61,46.4,70,75,2.24,1573883285
167,669148,Rasova,RO,44.24,27.94,55.99,100,75,5.82,1573883285
168,2185537,Kawhia,NZ,-38.07,174.82,60.01,79,93,7.72,1573883285
169,2654970,Brae,GB,60.4,-1.35,41.0,100,50,3.36,1573883285
170,1497795,Nevyansk,RU,57.49,60.21,32.9,87,100,11.48,1573883285
171,3412093,Vestmannaeyjar,IS,63.44,-20.27,41.97,60,47,20.15,1573883285
172,2156643,Mount Gambier,AU,-37.83,140.78,57.2,58,90,14.99,1573883285
173,6779095,Nara,ML,15.17,-7.29,70.03,27,21,4.34,1573883285
174,2931521,Eisenberg,DE,50.97,11.9,44.01,100,100,2.24,1573883285
175,6111862,Port Hardy,CA,50.7,-127.42,41.0,100,40,2.24,1573883199
176,2121025,Srednekolymsk,RU,67.46,153.71,2.79,96,100,3.42,1573883285
177,1489822,Teguldet,RU,57.31,88.17,-1.71,75,100,8.99,1573883285
178,1214488,Meulaboh,ID,4.14,96.13,81.81,75,77,5.75,1573883285
179,3430443,Necochea,AR,-38.55,-58.74,64.99,82,55,8.01,1573883107
180,472278,Rybnoye,RU,51.99,47.24,32.7,64,6,6.29,1573883286
181,5118226,Garden City,US,40.73,-73.63,43.0,56,1,10.29,1573883286
182,232287,Kanungu,UG,-0.9,29.78,69.21,60,100,2.26,1573883286
183,3653967,Muisne,EC,0.61,-80.02,74.17,89,100,8.08,1573883286
184,542788,Krasnaya Gora,RU,53.01,31.6,39.2,100,90,8.95,1573883286
185,2134814,Sola,VU,-13.88,167.55,81.52,81,100,20.85,1573883286
186,3354077,Opuwo,NA,-18.06,13.84,73.58,14,27,4.63,1573883286
187,780687,Berlevag,NO,70.86,29.09,36.45,63,100,6.49,1573883286
188,934479,Grand Gaube,MU,-20.01,57.66,78.8,69,75,17.22,1573883286
189,3355672,Luderitz,NA,-26.65,15.16,62.6,82,72,9.17,1573883087
190,778707,Mehamn,NO,71.03,27.85,27.12,76,99,1.43,1573883286
191,2018553,Olga,RU,43.74,135.29,31.77,41,0,27.29,1573883286
192,2122614,Okha,RU,53.59,142.95,19.99,76,87,14.12,1573883286
193,1213655,Stabat,ID,3.76,98.46,86.0,89,75,11.41,1573883287
194,5855927,Hilo,US,19.71,-155.08,80.6,69,1,4.7,1573883287
195,1507390,Dikson,RU,73.51,80.55,-2.22,89,0,3.49,1573883287
196,3361142,Springbok,ZA,-29.67,17.88,66.2,37,0,2.24,1573883287
197,933995,Souillac,MU,-20.52,57.52,78.8,69,75,17.22,1573883287
198,3137469,Sorland,NO,67.67,12.69,43.9,74,34,25.3,1573883287
199,132892,Gorgan,IR,36.84,54.43,44.6,93,75,6.93,1573883287
200,3439525,Young,UY,-32.7,-57.63,66.99,63,0,1.99,1573883287
201,1637001,Biak,ID,-0.91,122.88,82.51,69,0,13.6,1573883287
202,3420846,Qaqortoq,GL,60.72,-46.03,23.0,41,85,18.34,1573883287
203,2629833,Husavik,IS,66.04,-17.34,33.8,69,49,11.41,1573883287
204,3374218,Santa Maria,CV,16.6,-22.9,71.6,73,75,5.82,1573883161
205,4149959,Cape Canaveral,US,28.41,-80.6,62.6,88,90,9.17,1573883198
206,3569546,Aguada de Pasajeros,CU,22.38,-80.85,73.4,100,39,3.36,1573883348
207,1715015,Dicabisagan,PH,17.08,122.42,79.32,83,97,19.64,1573883348
208,2021017,Kysyl-Syr,RU,63.9,122.77,-11.11,95,100,6.98,1573883349
209,1645133,Dumai,ID,1.68,101.45,84.76,79,56,2.66,1573883349
210,2269594,Cascais,PT,38.7,-9.42,50.0,75,0,8.05,1573883349
211,2171722,Charters Towers,AU,-20.07,146.27,96.33,20,84,14.54,1573883349
212,4944903,Nantucket,US,41.28,-70.1,44.6,56,1,23.04,1573883349
213,935215,Saint-Philippe,RE,-21.36,55.77,80.6,69,64,6.93,1573883349
214,1650600,Balaipungut,ID,1.11,101.31,88.68,64,12,2.24,1573883349
215,3162116,Balestrand,NO,61.21,6.53,28.99,89,100,1.01,1573883349
216,5871146,Palmer,US,61.6,-149.11,37.4,55,75,10.29,1573883056
217,209598,Manono,CD,-7.3,27.4,77.9,80,100,1.1,1573883349
218,2169535,Dalby,AU,-27.18,151.26,99.0,14,37,14.99,1573883349
219,3397893,Itacoatiara,BR,-3.14,-58.44,75.76,82,64,2.51,1573883349
220,2178753,Kirakira,SB,-10.46,161.92,78.91,85,100,13.24,1573883350
221,1737185,Kapit,MY,2.02,112.94,81.52,92,89,2.77,1573883350
222,2068655,Katherine,AU,-14.47,132.26,104.0,6,2,8.05,1573883350
223,1185095,Teknaf,BD,20.86,92.31,92.14,41,4,1.7,1573883350
224,2168305,Dubbo,AU,-32.25,148.6,84.2,10,17,17.22,1573883350
225,553725,Kamenka,RU,53.19,44.05,32.0,75,7,12.84,1573883350
226,5850554,Makakilo City,US,21.35,-158.09,80.6,88,40,3.36,1573883350
227,5887798,Assiniboia,CA,49.63,-105.99,40.98,66,99,15.61,1573883350
228,1650527,Balikpapan,ID,-1.24,116.86,85.66,68,34,4.94,1573883350
229,1215502,Banda Aceh,ID,5.56,95.32,85.69,67,54,4.83,1573883248
230,2542997,Marrakesh,MA,31.63,-7.99,44.6,87,40,3.36,1573883350
231,2065594,Mount Isa,AU,-20.73,139.49,100.4,6,43,9.17,1573883350
232,2094342,Kavieng,PG,-2.57,150.8,85.26,68,28,6.64,1573883351
233,328716,Shakiso,ET,5.77,38.9,67.01,76,97,3.15,1573883351
234,1282027,Male,MV,4.17,73.51,84.2,74,75,14.99,1573883351
235,3671437,Puerto Leguizamo,CO,-0.19,-74.78,72.36,98,100,1.61,1573883351
236,3445713,Uruacu,BR,-14.52,-49.14,70.74,91,64,3.62,1573883351
237,2191562,Dunedin,NZ,-45.87,170.5,48.99,95,69,18.99,1573883351
238,333795,Jijiga,ET,9.35,42.8,68.41,33,22,12.62,1573883351
239,6149996,Smithers,CA,54.78,-127.17,35.6,93,40,5.82,1573883351
240,1512019,Aksarka,RU,66.56,67.8,14.16,95,100,9.6,1573883351
241,1490796,Strezhevoy,RU,60.73,77.6,5.0,84,90,11.18,1573883351
242,1651103,Atambua,ID,-9.11,124.89,88.18,48,31,8.59,1573883351
243,1865309,Katsuura,JP,33.93,134.5,70.0,40,20,3.36,1573883352
244,2161515,Kiama,AU,-34.67,150.86,68.0,59,90,14.99,1573883352
245,2253354,Dakar,SN,14.69,-17.45,73.4,94,97,5.82,1573883352
246,1622318,Waingapu,ID,-9.65,120.26,83.59,76,33,15.55,1573883352
247,2702979,Jonkoping,SE,57.78,14.16,44.01,93,100,9.17,1573883352
248,4597948,Sumter,US,33.92,-80.34,46.4,100,90,12.75,1573883192
249,3386213,Touros,BR,-5.2,-35.46,77.0,83,75,6.93,1573883352
250,3446880,Tapes,BR,-30.67,-51.4,56.43,97,0,2.48,1573883352
251,2018735,Nyurba,RU,63.29,118.35,-7.35,93,100,6.78,1573883352
252,2128072,Shiraoi,JP,42.56,141.33,36.0,59,75,17.22,1573883352
253,866062,Iskateley,RU,67.68,53.15,28.13,88,99,21.63,1573883352
254,2450173,Taoudenni,ML,22.68,-3.98,67.68,22,25,8.97,1573883352
255,1485724,Talaya,RU,55.79,84.89,-9.4,76,39,11.18,1573883352
256,1254709,Tezu,IN,27.93,96.16,79.88,50,0,4.14,1573883353
257,1337612,Dhidhdhoo,MV,6.88,73.1,83.28,74,94,11.34,1573883353
258,2652586,Coleraine,GB,55.13,-6.67,39.0,92,100,2.19,1573883353
259,3401225,Amapa,BR,-1.83,-56.23,77.97,85,76,0.94,1573883353
260,4899665,Lewistown,US,40.39,-90.15,33.01,94,1,6.93,1573883414
261,1492299,Shebalino,RU,51.29,85.68,1.33,62,1,2.98,1573883414
262,5924351,Clyde River,CA,70.47,-68.59,14.0,78,1,12.75,1573883414
263,1257259,Saraipali,IN,21.32,83.0,80.71,41,0,2.51,1573883414
264,1488903,Turukhansk,RU,65.8,87.96,-14.17,91,80,6.71,1573883414
265,2167426,Emerald,AU,-23.53,148.16,100.4,18,1,5.82,1573883414
266,3358666,Aranos,NA,-24.14,19.11,77.65,9,56,4.12,1573883415
267,1056899,Sambava,MG,-14.27,50.17,86.99,56,16,3.02,1573883415
268,3899695,Ancud,CL,-41.87,-73.83,50.0,93,75,9.17,1573883415
269,1788852,Xining,CN,36.62,101.77,46.87,23,87,6.17,1573883415
270,1493197,Salekhard,RU,66.54,66.62,13.1,95,100,3.51,1573883415
271,3573061,Saint George,BM,32.38,-64.68,71.6,94,75,8.05,1573883415
272,5847411,Kahului,US,20.89,-156.47,78.8,74,1,5.61,1573883402
273,2400547,Gamba,GA,-2.72,10.02,75.78,92,100,3.8,1573883415
274,5960603,Geraldton,CA,49.72,-86.95,-9.4,76,75,2.24,1573883415
275,1266128,Koraput,IN,18.81,82.72,80.6,46,0,4.23,1573883415
276,6071421,Meadow Lake,CA,54.13,-108.44,28.38,95,100,5.26,1573883415
277,5528182,Pecos,US,31.42,-103.49,46.4,70,1,6.55,1573883415
278,981158,Lydenburg,ZA,-25.1,30.46,75.0,65,0,3.15,1573883133
279,2374588,Buba,GW,11.59,-14.99,75.81,74,89,3.38,1573883416
280,3393692,Itarema,BR,-2.92,-39.92,76.48,83,14,4.74,1573883416
281,3893629,Coquimbo,CL,-29.95,-71.34,57.2,87,75,2.24,1573883416
282,2137773,Vao,NC,-22.67,167.48,74.14,76,1,15.39,1573883416
283,916095,Kabwe,ZM,-14.44,28.44,72.66,77,100,7.65,1573883416
284,2172880,Byron Bay,AU,-28.65,153.62,84.2,69,0,16.11,1573883246
285,1852357,Shimoda,JP,34.7,138.93,70.0,48,20,6.93,1573883416
286,1650434,Bambanglipuro,ID,-7.95,110.28,86.29,55,16,15.41,1573883416
287,1895695,Kushima,JP,31.5,131.29,68.0,37,0,5.82,1573883416
288,1276371,Bhabua,IN,25.04,83.61,81.73,29,0,6.35,1573883416
289,1563281,Tuy Hoa,VN,13.08,109.3,78.73,81,46,15.01,1573883213
290,2013279,Vostok,RU,46.45,135.83,3.65,85,100,15.93,1573883416
291,3382160,Cayenne,GF,4.94,-52.33,73.4,94,21,4.03,1573883416
292,2618795,Klaksvik,FO,62.23,-6.59,39.2,86,100,13.87,1573883417
293,1259385,Port Blair,IN,11.67,92.75,86.0,74,40,5.82,1573883147
294,924102,Rumphi,MW,-11.02,33.86,85.78,32,66,3.89,1573883417
295,2173911,Broken Hill,AU,-31.97,141.45,75.2,23,10,8.05,1573883417
296,4146934,Bayshore Gardens,US,27.43,-82.59,66.99,87,90,5.82,1573883417
297,3839307,Rawson,AR,-43.3,-65.11,59.2,46,80,15.37,1573883417
298,3623601,Guacimo,CR,10.21,-83.68,69.8,83,77,9.17,1573883417
299,69559,Yarim,YE,14.3,44.38,57.87,40,0,4.76,1573883417
300,2027042,Batagay-Alyta,RU,67.8,130.41,-9.94,79,0,2.8,1573883417
301,2036581,Jiamusi,CN,46.81,130.37,17.65,37,83,15.82,1573883417
302,2122104,Petropavlovsk-Kamchatskiy,RU,53.05,158.65,24.8,79,10,2.24,1573883417
303,6166739,Timmins,CA,48.48,-81.33,-11.2,83,5,3.71,1573883417
304,3374210,Sao Filipe,CV,14.9,-24.5,72.39,75,99,7.63,1573883417
305,3939168,Huarmey,PE,-10.07,-78.15,61.3,88,100,1.74,1573883418
306,105299,Jizan,SA,16.89,42.56,84.2,66,20,5.82,1573883418
307,1054329,Vangaindrano,MG,-23.35,47.6,76.98,89,100,6.35,1573883418
308,878141,Madimba,TZ,-10.4,40.33,82.4,78,75,17.22,1573883418
309,3372783,Ponta Delgada,PT,37.73,-25.67,60.8,67,75,5.82,1573883418
310,3374235,Sal Rei,CV,16.18,-22.92,71.6,73,75,5.82,1573883418
311,3449112,Sao Francisco do Sul,BR,-26.24,-48.64,66.0,90,42,6.89,1573883479
312,4670234,Alice,US,27.75,-98.07,48.0,93,1,3.53,1573883479
313,584051,Svetlogorsk,RU,53.14,59.15,46.4,19,0,11.18,1573883479
314,1794209,Simao,CN,22.76,100.79,72.61,49,0,6.15,1573883479
315,1489853,Tazovskiy,RU,67.47,78.7,-13.25,94,100,20.94,1573883312
316,1510377,Belyy Yar,RU,53.6,91.39,-4.0,70,98,6.71,1573883479
317,5972762,Hay River,CA,60.82,-115.79,8.6,78,75,10.29,1573883479
318,5500539,Boulder City,US,35.98,-114.83,62.6,26,1,3.36,1573883452
319,286245,Sur,OM,22.57,59.53,77.83,27,0,1.88,1573883479
320,2136825,Isangel,VU,-19.55,169.27,74.46,80,34,16.24,1573883480
321,3424934,Saint-Pierre,PM,46.77,-56.17,48.97,92,100,38.95,1573883480
322,3115824,Muros,ES,42.77,-9.06,50.0,100,20,4.7,1573883480
323,2025241,Churapcha,RU,62.0,132.43,-15.72,95,24,6.53,1573883480
324,1693839,Pilar,PH,14.67,120.55,91.4,70,40,10.29,1573883480
325,6096551,Pangnirtung,CA,66.15,-65.72,8.94,68,5,5.26,1573883480
326,2980335,Sainte-Savine,FR,48.29,4.06,35.6,93,90,5.82,1573883480
327,2164025,Hamilton,AU,-37.74,142.02,53.8,68,100,10.29,1573883480
328,1183090,Bat Khela,PK,34.62,71.97,66.52,47,94,3.58,1573883480
329,2123836,Lazarev,RU,52.23,141.51,9.64,87,100,16.82,1573883480
330,779554,Honningsvag,NO,70.98,25.97,35.83,70,94,5.06,1573883480
331,3420768,Qasigiannguit,GL,68.82,-51.19,28.4,63,98,13.87,1573883480
332,3521476,Pijijiapan,MX,15.69,-93.21,73.63,73,31,3.47,1573883480
333,1274406,Cherrapunji,IN,25.28,91.72,75.2,64,20,3.49,1573883480
334,1496153,Omsk,RU,54.99,73.37,14.0,51,75,17.9,1573883481
335,3387204,Soure,BR,-0.72,-48.52,78.91,82,33,6.06,1573883481
336,2120400,Tungor,RU,53.39,142.95,19.99,76,87,14.12,1573883481
337,1151933,Nakhon Si Thammarat,TH,8.43,99.96,84.51,71,97,9.1,1573883481
338,6160919,Taber,CA,49.79,-112.14,46.99,52,75,27.51,1573883481
339,4034496,Fare,PF,-16.7,-151.02,79.45,82,36,16.33,1573883481
340,6180285,Whitecourt,CA,54.14,-115.68,35.6,100,40,5.82,1573883481
341,3674735,Miraflores,CO,5.2,-73.14,63.84,95,100,3.38,1573883481
342,5354943,Half Moon Bay,US,37.46,-122.43,59.0,93,90,10.29,1573883481
343,1507116,Dudinka,RU,69.41,86.18,-9.4,83,8,4.47,1573883367
344,108410,Riyadh,SA,24.63,46.72,64.4,59,90,4.7,1573883371
345,1267390,Kavaratti,IN,10.57,72.64,86.0,70,20,6.93,1573883481
346,1498087,Nadym,RU,65.53,72.51,7.56,92,100,19.22,1573883482
347,933211,Nokaneng,BW,-19.66,22.19,84.61,21,3,2.55,1573883482
348,3440777,Rocha,UY,-34.48,-54.34,53.53,92,38,7.23,1573883246
349,2029947,Moron,MN,47.38,110.32,9.54,91,100,9.33,1573883482
350,2019884,Mogzon,RU,51.74,111.97,9.73,52,17,7.76,1573883482
351,2527089,Tiznit,MA,29.7,-9.73,45.66,67,0,13.15,1573883482
352,3419842,Sisimiut,GL,66.94,-53.67,19.58,94,100,8.9,1573883482
353,5861897,Fairbanks,US,64.84,-147.72,6.8,54,90,6.93,1573883312
354,556268,Ostrovnoy,RU,68.05,39.51,22.53,92,29,15.7,1573883482
355,1497951,Nazarovo,RU,56.01,90.42,-2.06,89,100,13.18,1573883482
356,3531368,Celestun,MX,20.87,-90.4,75.52,75,89,22.28,1573883482
357,6537888,Assemini,IT,39.29,9.0,57.2,100,82,4.7,1573883290
358,3374351,Pombas,CV,17.15,-25.02,73.4,73,40,10.29,1573883482
359,2508813,Adrar,DZ,27.87,-0.29,59.0,33,0,6.93,1573883482
360,2177671,Armidale,AU,-30.51,151.67,79.0,1,35,5.99,1573883482
361,6180550,Whitehorse,CA,60.72,-135.06,35.6,94,75,16.11,1573883483
362,2597250,Solenzo,BF,12.18,-4.08,74.93,25,2,1.74,1573883483
363,338554,Dubti,ET,11.74,41.09,78.82,57,4,7.27,1573883544
364,2145554,Ulladulla,AU,-35.36,150.48,66.2,59,90,14.99,1573883544
365,3470052,Vargem Grande,BR,-23.71,-46.2,59.0,100,40,3.36,1573883544
366,1045114,Inhambane,MZ,-23.87,35.38,75.2,78,75,16.11,1573883544
367,1734715,Marang,MY,5.21,103.21,87.8,70,75,5.82,1573883544
368,352628,Matay,EG,28.42,30.79,63.88,77,0,12.64,1573883544
369,3155913,Geilo,NO,60.53,8.21,24.01,87,100,4.0,1573883544
370,1214724,Langsa,ID,4.47,97.97,91.8,52,85,4.72,1573883544
371,2270385,Camacha,PT,33.08,-16.33,62.6,77,75,12.75,1573883545
372,1729469,Baculin,PH,7.45,126.58,83.91,63,77,5.19,1573883545
373,2119283,Zyryanka,RU,65.73,150.89,-5.28,98,99,8.75,1573883545
374,2255304,Sembe,CG,1.65,14.58,70.23,98,100,2.21,1573883545
375,2162683,Innisfail,AU,-17.52,146.03,90.0,32,15,3.0,1573883545
376,3516685,Seybaplaya,MX,19.65,-90.67,68.4,96,72,4.14,1573883545
377,1493162,Salym,RU,60.06,71.48,18.55,93,100,12.01,1573883545
378,2014833,Tura,RU,64.27,100.22,-23.19,93,65,0.72,1573883545
379,5421250,Englewood,US,39.65,-104.99,48.99,40,1,4.7,1573883545
380,1786060,Yuanping,CN,38.72,112.71,46.98,21,69,3.13,1573883545
381,5972291,Havre-Saint-Pierre,CA,50.23,-63.6,24.8,79,90,18.34,1573883545
382,5367788,Lompoc,US,34.64,-120.46,62.6,81,1,13.56,1573883545
383,1269498,Jaitaran,IN,26.2,73.94,81.79,32,0,8.14,1573883546
384,6089245,Norman Wells,CA,65.28,-126.83,-4.0,76,90,10.29,1573883546
385,5969025,Haines Junction,CA,60.75,-137.51,29.32,95,95,12.37,1573883546
386,1270722,Gumla,IN,23.04,84.54,78.44,37,0,1.66,1573883546
387,2561668,Agadir,MA,30.42,-9.58,50.0,55,0,3.36,1573883546
388,2264557,Ponta do Sol,PT,32.67,-17.1,62.6,72,40,11.41,1573883546
389,2144168,Wellington,AU,-32.55,148.95,82.99,11,18,12.75,1573883547
390,2383827,Nola,CF,3.52,16.05,73.36,84,100,1.01,1573883547
391,5545269,Price,US,39.6,-110.81,42.01,38,1,9.17,1573883547
392,7671223,Kloulklubed,PW,7.04,134.26,86.0,70,75,10.29,1573883547
393,6112862,Preeceville,CA,51.95,-102.67,32.22,93,100,13.06,1573883547
394,935221,Saint-Paul,RE,-21.01,55.27,81.0,73,90,14.99,1573883547
395,88533,Awjilah,LY,29.14,21.3,58.96,56,22,7.52,1573883547
396,2016307,Solnechnyy,RU,50.72,136.64,5.86,82,95,2.13,1573883547
397,2139521,Noumea,NC,-22.28,166.46,87.8,38,20,6.93,1573883415
398,2122389,Ossora,RU,59.24,163.07,32.58,77,100,29.48,1573883547
399,3664956,Boca do Acre,BR,-8.76,-67.39,71.69,99,100,1.92,1573883547
400,2630299,Hofn,IS,64.25,-15.21,42.21,52,48,14.52,1573883547
401,6690296,Saint-Joseph,RE,-21.37,55.62,81.0,69,74,6.93,1573883547
402,5954718,Flin Flon,CA,54.77,-101.88,19.29,91,100,7.2,1573883547
403,4004293,Ixtapa,MX,20.71,-105.21,77.0,88,90,3.36,1573883547
404,1529484,Hami,CN,42.84,93.51,39.6,12,27,2.68,1573883548
405,2013727,Vanavara,RU,60.35,102.28,-16.53,86,4,0.92,1573883548
406,3572189,High Rock,BS,26.63,-78.28,75.22,89,100,14.79,1573883548
407,1783956,Yatou,CN,33.81,104.32,55.09,45,16,5.3,1573883548
408,2189343,Kaeo,NZ,-35.1,173.78,70.0,77,3,18.77,1573883548
409,1264637,Machilipatnam,IN,16.18,81.14,86.0,62,0,5.82,1573883548
410,7870153,Kroya,ID,-6.5,108.06,100.02,26,47,9.1,1573883548
411,1625929,Sungaipenuh,ID,-2.08,101.38,79.56,45,76,5.26,1573883548
412,3921355,Challapata,BO,-18.9,-66.78,50.7,57,99,8.14,1573883548
413,2063036,Port Lincoln,AU,-34.72,135.86,60.26,54,0,15.52,1573883548
414,3671497,Puerto Colombia,CO,10.99,-74.96,80.6,88,40,10.29,1573883548
415,2181625,Te Anau,NZ,-45.41,167.72,46.76,74,78,7.85,1573883549
416,95788,Hit,IQ,33.64,42.83,65.82,29,40,6.67,1573883549
417,1168312,Pasni,PK,25.26,63.48,80.55,22,16,6.17,1573883610
418,2155742,Narrabri,AU,-30.33,149.78,91.4,9,0,13.87,1573883610
419,140463,Birjand,IR,32.86,59.22,46.4,24,0,13.87,1573883610
420,3938415,Ilo,PE,-17.65,-71.34,65.77,81,94,6.93,1573883610
421,359792,Aswan,EG,24.09,32.9,66.2,52,21,9.17,1573883610
422,2127202,Anadyr,RU,64.73,177.51,17.6,78,20,20.13,1573883610
423,2064550,Northam,AU,-31.65,116.67,105.8,11,11,5.82,1573883610
424,3448903,Sao Joao da Barra,BR,-21.64,-41.05,71.67,84,100,7.2,1573883610
425,2374583,Bubaque,GW,11.28,-15.83,82.71,73,83,12.19,1573883610
426,3664980,Boa Vista,BR,2.82,-60.67,84.2,62,58,3.36,1573883610
427,136014,Do Gonbadan,IR,30.36,50.8,59.0,34,20,4.21,1573883610
428,955313,Siyabuswa,ZA,-25.11,29.06,73.54,45,0,8.32,1573883610
429,1493224,Salair,RU,54.23,85.8,-4.95,83,19,7.81,1573883610
430,2281951,Sassandra,CI,4.95,-6.09,75.43,93,85,3.24,1573883611
431,2126785,Belaya Gora,RU,68.54,146.19,-3.14,97,100,4.41,1573883611
432,3832899,Viedma,AR,-40.81,-62.99,59.18,42,83,5.68,1573883611
433,7696232,Qixingtai,CN,30.41,111.89,76.28,34,88,7.34,1573883611
434,877401,Songea,TZ,-10.68,35.65,73.4,78,75,9.17,1573883611
435,3421319,Nuuk,GL,64.17,-51.74,28.4,74,100,16.11,1573883611
436,3199017,Izola,SI,45.54,13.66,55.0,100,75,6.93,1573883611
437,3361934,Saldanha,ZA,-33.01,17.94,65.91,79,39,22.46,1573883611
438,2090021,Namatanai,PG,-3.66,152.44,84.54,72,17,7.67,1573883611
439,3405339,Bom Jardim,BR,-7.8,-35.59,71.24,85,63,5.39,1573883611
440,1222396,Kuah,MY,6.33,99.84,91.4,63,75,10.29,1573883611
441,1519030,Shu,KZ,43.6,73.76,24.01,56,13,5.99,1573883611
442,4036284,Alofi,NU,-19.06,-169.92,78.8,74,10,5.82,1573883611
443,1816080,Cangzhou,CN,38.3,116.85,56.77,57,65,10.71,1573883611
444,5350734,Fremont,US,37.55,-121.99,59.0,93,1,3.36,1573883612
445,2063056,Port Augusta,AU,-32.49,137.76,78.01,52,7,20.8,1573883612
446,2020838,Lensk,RU,60.71,114.91,-10.25,93,100,7.9,1573883612
447,2448245,Abalak,NE,15.46,6.28,73.98,17,45,5.23,1573883612
448,1633419,Padang,ID,-0.92,100.36,76.59,90,73,3.33,1573883612
449,878041,Matiri,TZ,-10.75,34.9,77.76,54,62,8.39,1573883612
450,3932145,Pisco,PE,-13.71,-76.2,66.2,82,90,4.7,1573883612
451,593406,Varena,LT,54.21,24.57,41.0,93,75,10.29,1573883612
452,3587498,Acajutla,SV,13.59,-89.83,82.89,77,76,10.11,1573883612
453,583345,Aleksandrov Gay,RU,50.14,48.57,34.14,56,0,8.14,1573883612
454,2064735,Nhulunbuy,AU,-12.18,136.78,89.6,55,40,12.75,1573883612
455,2125906,Dukat,RU,62.55,155.55,-7.47,99,100,5.5,1573883612
456,3663503,Manicore,BR,-5.81,-61.3,73.04,99,100,1.72,1573883613
457,2022083,Alekseyevsk,RU,57.84,108.35,-9.0,86,86,1.88,1573883613
458,236901,Ouadda,CF,8.07,22.4,73.6,44,100,3.38,1573883613
459,124291,Mehran,IR,33.12,46.17,53.6,27,0,9.17,1573883613
460,2633521,Worthing,GB,50.81,-0.37,41.0,86,75,8.05,1573883613
461,1337607,Kudahuvadhoo,MV,2.67,72.89,76.6,92,100,10.29,1573883613
462,541573,Konstantinovka,RU,51.44,45.63,30.99,86,0,3.0,1573883613
463,1586350,Cam Ranh,VN,11.92,109.15,86.0,74,20,13.87,1573883613
464,1861280,Itoman,JP,26.12,127.67,77.0,57,40,13.87,1573883613
465,3615813,Villa Sandino,NI,12.05,-84.99,71.04,95,100,7.78,1573883613
466,2729907,Longyearbyen,SJ,78.22,15.64,35.6,59,75,21.92,1573883613
467,1789289,Dayong,CN,25.02,118.29,77.0,53,20,4.47,1573883613
468,2127060,Arman,RU,59.7,150.17,28.94,56,100,28.88,1573883613
469,1024552,Xai-Xai,MZ,-25.04,33.64,73.44,70,68,13.53,1573883613
470,1715335,Davila,PH,18.47,120.58,86.0,66,40,17.22,1573883613
471,3406041,Barroquinha,BR,-3.02,-41.13,70.93,95,17,4.52,1573883613
472,5520677,Eagle Pass,US,28.71,-100.5,42.8,81,1,6.73,1573883675
473,535839,Leshukonskoye,RU,64.9,45.76,28.9,91,87,9.31,1573883675
474,257122,Methoni,GR,36.82,21.7,63.0,87,84,4.7,1573883675
475,103630,Najran,SA,17.54,44.22,68.0,37,0,3.02,1573883675
476,847633,Alta,NO,69.97,23.27,23.0,85,63,16.11,1573883675
477,1802276,Longyan,CN,25.1,117.03,78.94,33,0,2.89,1573883675
478,143921,Aligudarz,IR,33.4,49.69,33.4,41,0,3.83,1573883675
479,3887344,Illapel,CL,-31.63,-71.17,53.44,67,0,3.42,1573883675
480,1688696,San Policarpo,PH,12.18,125.51,79.14,89,100,5.61,1573883675
481,918702,Chipata,ZM,-13.64,32.65,86.83,38,68,5.57,1573883675
482,6355222,Yulara,AU,-25.24,130.99,98.6,5,0,17.22,1573883675
483,5978133,Hudson Bay,CA,52.86,-102.4,24.89,99,100,3.36,1573883676
484,705034,Kopayhorod,UA,48.86,27.8,51.01,93,95,1.01,1573883676
485,5888001,Atikokan,CA,48.76,-91.62,15.06,71,86,8.66,1573883676
486,3515504,Tizimin,MX,21.14,-88.15,73.0,84,70,1.99,1573883676
487,2318123,Yenagoa,NG,4.92,6.26,76.87,92,100,1.97,1573883676
488,552465,Kargopol,RU,61.51,38.95,29.26,97,100,3.49,1573883676
489,2057087,Kupang,ID,-10.16,123.6,89.6,59,20,13.87,1573883676
490,2449893,Tessalit,ML,20.2,1.01,57.96,17,14,1.45,1573883676
491,1337613,Kulhudhuffushi,MV,6.62,73.07,83.35,74,100,11.61,1573883626
492,4732862,Nome,US,30.04,-94.42,46.4,93,1,3.36,1573883676
493,337152,Gebre Guracha,ET,9.8,38.4,67.75,44,25,5.95,1573883677
494,1489656,Teya,RU,60.37,92.63,-8.88,90,95,4.36,1573883677
495,964712,Plettenberg Bay,ZA,-34.05,23.37,66.31,80,90,5.48,1573883677
496,1241622,Wattegama,LK,7.35,80.68,89.82,51,51,2.46,1573883677
497,3855065,General Roca,AR,-39.03,-67.58,62.6,45,85,4.7,1573883677
498,2512186,Puerto del Rosario,ES,28.5,-13.86,64.4,68,7,14.99,1573883677
499,57000,Hobyo,SO,5.35,48.53,83.35,64,29,20.54,1573883677
500,2071860,Esperance,AU,-33.86,121.89,86.0,37,0,19.46,1573883677
501,5506956,Las Vegas,US,36.17,-115.15,62.6,26,1,3.36,1573883406
502,1784841,Zhaotong,CN,27.34,103.71,62.69,55,4,5.46,1573883491
503,1226260,Trincomalee,LK,8.58,81.23,89.42,54,14,5.95,1573883677
504,2185329,Waipawa,NZ,-39.94,176.59,66.99,68,100,10.0,1573883677
505,2338242,Ikom,NG,5.96,8.72,75.13,95,100,1.21,1573883677
506,2141305,Fayaoue,NC,-20.65,166.53,75.69,77,0,18.16,1573883677
507,2186111,Ngunguru,NZ,-35.62,174.5,70.0,62,81,1.01,1573883678
508,98182,Baghdad,IQ,33.3,44.38,57.2,58,0,1.12,1573883678
509,2012938,Yerofey Pavlovich,RU,53.97,121.97,3.16,76,100,4.92,1573883678
510,934812,Albion,MU,-20.21,57.4,78.8,69,75,17.22,1573883678
511,1847947,Shingu,JP,33.72,135.99,66.2,37,20,12.75,1573883678
512,2996180,Manosque,FR,43.83,5.78,39.2,93,20,2.24,1573883678
513,1640972,Katobu,ID,-4.94,122.53,96.44,28,0,7.87,1573883678
514,3351380,Caconda,AO,-13.73,15.06,64.92,86,100,2.91,1573883678
515,2147714,Sydney,AU,-33.85,151.22,75.99,60,75,13.87,1573883486
516,1141857,Gardez,AF,33.6,69.22,44.6,65,90,4.7,1573883678
517,1510350,Leninskoye,RU,54.82,82.85,-4.0,76,26,11.18,1573883678
518,3938451,Ilave,PE,-16.09,-69.64,46.18,72,100,1.59,1573883678
519,161901,Kaka,TM,37.35,59.62,48.0,60,80,3.76,1573883678
520,2964782,Dingle,IE,52.14,-10.27,46.99,58,90,6.2,1573883678
521,777019,Vardo,NO,70.37,31.11,34.45,72,100,6.42,1573883739
522,2960970,Westport,IE,53.8,-9.52,39.0,90,91,1.79,1573883739
523,3380290,Sinnamary,GF,5.38,-52.96,81.9,81,4,13.11,1573883740
524,5983607,Inuvik,CA,68.36,-133.71,-13.0,75,90,2.24,1573883740
525,5509851,Pahrump,US,36.21,-115.98,52.0,25,1,10.29,1573883442
526,2983489,Riom,FR,45.89,3.11,36.0,86,40,13.87,1573883740
527,1510689,Baykit,RU,61.68,96.39,-17.46,92,68,0.72,1573883740
528,2034615,Tahe,CN,52.34,124.71,3.81,71,31,11.41,1573883740
529,4465088,Elizabeth City,US,36.3,-76.22,50.0,93,90,19.46,1573883740
530,3470583,Barreiras,BR,-12.14,-45.0,73.47,73,95,1.28,1573883740
531,3652567,San Cristobal,EC,-1.02,-79.44,74.82,74,100,9.15,1573883740
532,3461370,Imbituba,BR,-28.24,-48.67,66.2,72,0,8.05,1573883487
533,1253237,Veraval,IN,20.9,70.37,86.18,45,0,3.33,1573883740
534,2441530,Madaoua,NE,14.07,5.96,77.41,17,30,6.87,1573883741
535,1283240,Kathmandu,NP,27.71,85.32,69.8,68,40,2.24,1573883658
536,3939761,Hualmay,PE,-11.1,-77.61,61.61,87,100,2.75,1573883741
537,6067747,Matagami,CA,49.76,-77.63,1.4,84,1,8.05,1573883741
538,3998291,Loreto,MX,22.27,-101.99,49.87,81,17,2.17,1573883741
539,1630662,Praya,ID,-8.71,116.27,91.4,52,20,11.41,1573883741
540,610611,Aqtobe,KZ,50.28,57.21,33.8,80,90,13.42,1573883623
541,1683881,Talisay,PH,10.25,123.85,87.8,66,75,10.29,1573883741
542,3577154,Oranjestad,AW,12.52,-70.03,80.6,83,20,8.05,1573883741
543,3466980,Caravelas,BR,-17.73,-39.27,72.73,95,100,7.9,1573883741
544,3398401,Ibimirim,BR,-8.54,-37.69,65.97,91,8,8.59,1573883741
545,5946820,Edson,CA,53.59,-116.44,32.0,90,1,3.36,1573883741
546,6113406,Prince Rupert,CA,54.32,-130.32,50.0,81,90,11.41,1573883691
547,1026014,Tete,MZ,-16.16,33.59,87.8,52,75,4.7,1573883577
548,2396646,Oyem,GA,1.6,11.57,69.21,97,100,1.57,1573883741
549,902620,Mwinilunga,ZM,-11.73,24.43,68.23,91,85,3.15,1573883742
550,3868633,Vallenar,CL,-28.58,-70.76,52.83,94,3,1.77,1573883742
551,5056172,Maryville,US,40.35,-94.87,37.4,69,1,5.82,1573883742
552,2377457,Nouadhibou,MR,20.93,-17.03,66.2,68,88,20.8,1573883462
553,541344,Krasnyy Yar,RU,50.7,44.73,33.26,64,0,13.15,1573883742
554,212902,Kindu,CD,-2.95,25.92,72.28,97,100,2.28,1573883742
555,1486321,Yar-Sale,RU,66.83,70.83,6.3,93,100,18.21,1573883742
556,2212775,Sabha,LY,27.03,14.43,57.02,29,38,12.97,1573883742
557,3691954,Sechura,PE,-5.56,-80.82,64.56,91,99,10.31,1573883742
558,1496476,Nyagan,RU,62.14,65.43,33.82,83,91,11.9,1573883742
559,3372472,Vila Franca do Campo,PT,37.72,-25.43,60.8,67,75,5.82,1573883742
560,3723593,Jeremie,HT,18.65,-74.12,69.58,93,21,2.42,1573883742
561,609919,Kuryk,KZ,43.18,51.68,42.98,74,1,17.18,1573883742
562,2063042,Port Hedland,AU,-20.31,118.58,95.0,47,31,20.8,1573883742
563,1502750,Kommunisticheskiy,RU,61.68,64.48,33.85,83,83,12.75,1573883743
564,5789856,Cheney,US,47.49,-117.58,39.99,100,90,7.7,1573883743
565,5703670,Elko,US,40.83,-115.76,41.0,51,1,3.36,1573883743
566,2142316,Yeppoon,AU,-23.13,150.74,93.2,38,23,18.34,1573883743
567,4720039,Port Arthur,US,29.9,-93.93,46.4,87,1,3.36,1573883483
568,3622716,Nicoya,CR,10.15,-85.45,75.2,94,97,2.24,1573883743
569,591265,Kohila,EE,59.17,24.75,41.0,100,90,10.29,1573883743
570,3465713,Conde,BR,-11.81,-37.61,78.78,80,100,20.31,1573883674
571,2427336,Moussoro,TD,13.64,16.49,80.82,19,37,12.15,1573883804
572,3401148,Cururupu,BR,-1.82,-44.87,71.98,98,1,2.55,1573883804
573,2030065,Mandalgovi,MN,45.76,106.27,35.92,25,100,21.59,1573883804
574,5641727,Bozeman,US,45.68,-111.04,48.99,56,90,8.05,1573883713
575,962367,Richards Bay,ZA,-28.77,32.06,70.02,80,6,20.27,1573883805
576,898947,Senanga,ZM,-16.1,23.3,74.07,78,100,7.49,1573883805
577,1269507,Jaisalmer,IN,26.91,70.91,74.3,56,1,13.42,1573883805
578,3463140,Formosa,BR,-15.55,-47.33,67.6,86,100,3.44,1573883805
579,2221530,Tibati,CM,6.47,12.63,71.62,63,51,0.92,1573883805
580,2032614,Baruun-Urt,MN,46.68,113.28,22.17,59,85,11.99,1573883805
581,5554428,Ketchikan,US,55.34,-131.65,48.2,100,90,9.17,1573883805
582,645765,Muhos,FI,64.81,26.0,32.0,91,90,4.7,1573883805
583,3448454,Belmonte,BR,-26.84,-53.58,55.58,95,0,1.79,1573883805
584,5261457,Madison,US,43.07,-89.38,28.99,86,1,6.93,1573883740
585,3374083,Bathsheba,BB,13.22,-59.52,77.0,88,20,5.82,1573883805
586,1502422,Kosh-Agach,RU,49.99,88.66,-14.08,73,0,2.21,1573883805
587,3421193,Paamiut,GL,61.99,-49.67,26.17,78,96,14.12,1573883806
588,5380437,Pacific Grove,US,36.62,-121.92,59.0,87,75,5.82,1573883806
589,2070998,Geraldton,AU,-28.77,114.6,78.8,65,0,13.87,1573883806
590,1273909,Churachandpur,IN,24.33,93.67,68.0,68,20,2.24,1573883806
591,3662762,Porto Velho,BR,-8.75,-63.87,73.4,94,75,1.12,1573883806
592,1255925,Siwana,IN,25.65,72.42,82.92,33,0,4.59,1573883806
593,484670,Taman,RU,45.22,36.72,42.8,81,0,10.22,1573883806
594,3985168,San Patricio,MX,19.22,-104.7,79.57,78,100,8.19,1573883806
595,1651531,Ambon,ID,-3.7,128.18,87.8,66,20,10.29,1573883806
596,2012530,Zhigansk,RU,66.77,123.37,-5.21,95,99,13.53,1573883806
597,2180815,Tuatapere,NZ,-46.13,167.69,54.0,77,28,8.99,1573883807
598,2640377,Penzance,GB,50.12,-5.53,48.99,81,25,18.34,1573883807
599,2075720,Broome,AU,-17.97,122.23,95.0,41,63,10.29,1573883785
600,3354071,Oranjemund,NA,-28.55,16.43,64.15,81,100,9.95,1573883807
601,2174444,Bowen,AU,-20.01,148.25,91.4,41,86,12.75,1573883807
602,1160571,Khash,IR,28.22,61.21,57.61,16,94,6.33,1573883807
603,3705562,Los Algarrobos,PA,8.5,-82.43,66.0,88,94,1.74,1573883807
604,625721,Lyuban,BY,52.8,28.0,37.71,94,74,7.18,1573883807
605,3870243,Taltal,CL,-25.41,-70.49,55.69,88,74,6.06,1573883807
606,911148,Luangwa,ZM,-12.88,28.25,68.43,88,100,6.82,1573883807
607,3374336,Porto Novo,CV,17.02,-25.06,73.4,73,40,10.29,1573883807
608,978895,Margate,ZA,-30.86,30.37,69.53,76,65,6.08,1573883807
609,1798760,Pingliang,CN,35.54,106.68,47.44,63,48,5.97,1573883807
610,1218612,Murgab,TM,37.5,61.97,39.2,64,60,6.93,1573883807
611,2175819,Biloela,AU,-24.4,150.51,92.61,26,0,6.31,1573883807
612,1698289,Pundaguitan,PH,6.37,126.17,83.21,61,89,0.43,1573883808
613,2062276,Roebourne,AU,-20.77,117.15,109.9,8,13,18.88,1573883808
614,2294915,Takoradi,GH,4.89,-1.75,77.85,85,60,4.0,1573883808
615,2122605,Okhotsk,RU,59.36,143.24,22.93,71,100,18.45,1573883808
616,3927774,Tarata,PE,-17.47,-70.03,60.8,77,100,2.24,1573883808
617,5864145,Homer,US,59.64,-151.54,43.0,87,90,10.4,1573883808
618,2013918,Ust-Maya,RU,60.42,134.54,-12.87,95,100,3.47,1573883808
619,921772,Moroni,KM,-11.7,43.26,87.8,58,20,8.05,1573883808
620,3573374,The Valley,AI,18.22,-63.06,80.6,78,40,2.24,1573883808
621,236950,Obo,CF,5.39,26.49,76.91,73,38,1.59,1573883870
622,4235193,Carbondale,US,37.73,-89.22,30.2,92,1,6.85,1573883747
623,2229748,Kumbo,CM,6.21,10.69,65.07,77,95,2.06,1573883870
624,6167254,Tofield,CA,53.37,-112.67,37.99,93,90,5.82,1573883870
625,667172,Silistea Crucii,RO,44.03,23.48,50.0,100,20,5.82,1573883870
626,2021041,Kyra,RU,49.58,111.97,10.24,88,100,8.79,1573883870
627,2027968,Aldan,RU,58.61,125.39,-11.52,92,100,2.91,1573883870
628,6453882,Valence,FR,44.93,4.89,33.01,92,100,2.86,1573883871
629,1798490,Pulandian,CN,39.4,121.96,53.6,50,20,13.42,1573883871
630,6144312,Sept-Iles,CA,50.2,-66.38,21.0,79,75,17.22,1573883871
631,2138555,Poum,NC,-20.23,164.02,75.74,74,4,22.44,1573883871
632,1859964,Kaseda,JP,31.42,130.32,68.0,32,0,6.93,1573883871
633,559643,Gorodishche,RU,53.27,45.7,32.0,75,37,8.86,1573883871
634,3670745,Riohacha,CO,11.54,-72.91,75.87,90,49,6.02,1573883839
635,2206369,Foxton,NZ,-40.47,175.29,64.99,76,71,10.0,1573883871
636,2157698,Mildura,AU,-34.18,142.16,71.6,19,53,6.93,1573883871
637,6145890,Shelburne,CA,44.08,-80.2,23.0,61,1,7.23,1573883871
638,669133,Rastolita,RO,46.97,24.99,41.0,99,63,3.44,1573883871
639,2138592,Pouembout,NC,-21.12,164.9,76.12,52,6,9.42,1573883872
640,2743298,Agucadoura,PT,41.43,-8.78,42.01,93,1,4.7,1573883872
641,3445675,Urupes,BR,-21.2,-49.29,73.4,88,20,2.24,1573883658
642,1791779,Wanning,CN,18.8,110.4,79.32,67,3,7.31,1573883872
643,162627,Yabrud,SY,33.97,36.66,55.4,87,75,2.86,1573883872
644,1496073,Orlik,RU,52.51,99.83,-14.21,74,100,5.88,1573883872
645,6255012,Flinders,AU,-34.58,150.85,71.01,59,90,14.99,1573883872
646,5905393,Bonavista,CA,48.65,-53.11,41.0,86,100,5.01,1573883872
647,1801850,Luorong,CN,24.41,109.6,79.34,55,26,12.01,1573883872
648,2610343,Vestmanna,FO,62.16,-7.17,39.2,86,100,13.87,1573883872
649,4916891,Winnetka,US,42.11,-87.74,32.0,86,1,17.13,1573883646
650,5975004,High Level,CA,58.52,-117.13,8.6,92,20,2.24,1573883872
651,5935341,Dauphin,CA,51.15,-100.04,24.8,85,20,5.82,1573883872
652,1611195,Chiang Klang,TH,19.29,100.86,82.87,49,1,4.92,1573883873
653,3869716,Tocopilla,CL,-22.09,-70.2,51.1,71,35,2.57,1573883873
654,3616594,San Rafael del Sur,NI,11.85,-86.44,77.0,88,40,4.7,1573883873
655,2015701,Taksimo,RU,56.36,114.84,-7.76,77,100,2.51,1573883873
656,2176225,Benalla,AU,-36.55,145.99,69.8,22,50,13.87,1573883873
657,1803936,Wuwei,CN,37.93,102.64,48.61,16,100,9.89,1573883873
658,1529660,Aksu,CN,41.12,80.26,51.82,20,92,3.94,1573883873
659,1715430,Sapa,PH,14.32,120.76,91.0,70,40,8.05,1573883873
660,2037886,Dandong,CN,40.12,124.37,45.63,33,0,7.99,1573883873
661,1090225,Koungou,YT,-12.73,45.2,87.8,70,20,10.29,1573883873
662,3894426,Coihaique,CL,-45.58,-72.07,48.2,61,20,6.93,1573883873
663,2063039,Port Keats,AU,-14.25,129.55,90.03,60,48,16.78,1573883873
664,1641899,Labuhan,ID,-2.54,115.51,94.46,37,93,5.41,1573883873
665,5942913,Dryden,CA,49.79,-92.84,17.6,61,90,10.29,1573883873
666,2037222,Gongzhuling,CN,43.5,124.81,25.2,23,23,4.83,1573883874
667,2067089,Maningrida,AU,-12.05,134.23,88.84,55,78,13.71,1573883874
668,2232593,Douala,CM,4.04,9.71,77.0,100,75,3.56,1573883874
669,5949601,Eston,CA,51.15,-108.75,35.01,83,90,11.41,1573883874
670,3429594,Reconquista,AR,-29.14,-59.64,62.33,69,0,5.64,1573883935
671,2856530,Osterhofen,DE,48.7,13.02,42.01,87,97,4.61,1573883935
672,2701713,Karlskrona,SE,56.16,15.59,46.4,100,100,11.41,1573883935
673,2638419,Scarborough,GB,54.28,-0.41,48.0,100,100,6.93,1573883935
674,3928128,Tacna,PE,-18.01,-70.25,64.4,77,100,2.24,1573883935
675,4936174,Falmouth,US,41.55,-70.61,44.6,64,1,5.82,1573883935
676,1700994,Suclayin,PH,15.76,121.55,83.17,54,71,3.6,1573883935
677,4295251,Hopkinsville,US,36.87,-87.49,32.0,74,1,4.7,1573883764
678,479523,Uglovka,RU,58.24,33.51,33.46,93,100,5.79,1573883935
679,2140558,Koumac,NC,-20.56,164.28,77.49,46,28,4.92,1573883935
680,5749352,Roseburg,US,43.22,-123.34,53.6,93,90,0.58,1573883823
681,2026861,Berdigestyakh,RU,62.1,126.7,-10.44,91,100,7.0,1573883935
682,2282006,San-Pedro,CI,4.75,-6.64,81.37,77,90,5.32,1573883935
683,3901547,Villamontes,BO,-21.26,-63.47,69.71,46,84,3.53,1573883936
684,3617459,Nueva Guinea,NI,11.69,-84.46,71.94,97,100,5.01,1573883936
685,610612,Aktau,KZ,43.65,51.16,35.6,74,90,15.66,1573883936
686,565407,Dombarovskiy,RU,50.76,59.54,30.88,74,0,7.99,1573883936
687,2033449,Yantongshan,CN,43.28,126.02,23.76,35,1,5.28,1573883936
688,1490085,Tarko-Sale,RU,64.92,77.78,-0.99,84,100,19.75,1573883936
689,1528998,Yumen,CN,40.29,97.04,43.07,21,63,28.1,1573883936
690,2036069,Linjiang,CN,41.81,126.91,27.82,47,23,4.72,1573883936
691,53654,Mogadishu,SO,2.04,45.34,84.2,66,75,13.87,1573883931
692,189280,Lodwar,KE,3.12,35.6,86.65,39,40,16.46,1573883936
693,3987224,San Felipe,MX,31.02,-114.84,62.17,45,92,2.3,1573883936
694,3521972,Panaba,MX,21.28,-88.27,72.0,85,80,1.01,1573883936
695,590030,Narva-Joesuu,EE,59.46,28.04,39.04,91,100,8.05,1573883936
696,315621,Emirdag,TR,39.02,31.15,48.81,82,59,2.13,1573883936
697,218680,Boende,CD,-0.28,20.88,73.51,97,100,0.47,1573883936
698,6111696,Port-Cartier,CA,50.03,-66.88,21.0,79,75,17.22,1573883937
699,778362,Oksfjord,NO,70.24,22.35,30.2,86,15,6.93,1573883937
700,6324729,Halifax,CA,44.65,-63.58,42.01,93,75,8.05,1573883800
701,3991347,Puerto Penasco,MX,31.32,-113.53,70.0,78,97,6.31,1573883937
702,2136150,Luganville,VU,-15.51,167.18,84.2,70,75,9.17,1573883937
703,577922,Belomorsk,RU,64.52,34.76,30.65,84,85,5.03,1573883937
704,1566559,Tay Ninh,VN,11.3,106.1,85.82,62,68,3.6,1573883937
705,5540831,Hurricane,US,37.18,-113.29,57.2,47,1,4.7,1573883937
706,522742,Neman,RU,55.03,22.03,40.24,92,59,10.0,1573883937
707,3398428,Humberto de Campos,BR,-2.6,-43.46,76.37,87,3,6.22,1573883729
708,1640044,Kijang,ID,0.9,104.63,89.6,59,20,4.7,1573883937
709,1624041,Ternate,ID,0.8,127.4,84.09,72,81,4.59,1573883937
710,3454005,Piacabucu,BR,-10.41,-36.43,75.52,84,82,10.65,1573883937
711,2084442,Vanimo,PG,-2.67,141.3,84.79,74,83,15.79,1573883937
712,515873,Oktyabrskiy,RU,55.61,37.97,36.0,90,90,6.71,1573883938
713,564593,Dubovskoye,RU,47.41,42.76,40.14,75,67,19.3,1573883938
714,4882839,Saint Augustine,US,40.72,-90.41,33.8,94,1,6.93,1573883938
715,2516474,Icod de los Vinos,ES,28.37,-16.71,64.99,87,90,17.22,1573883938
716,126972,Sarab,IR,38.61,44.99,39.65,64,0,2.24,1573883938
717,5530932,Socorro,US,31.65,-106.3,52.0,45,90,3.36,1573883938
718,5955902,Fort Nelson,CA,58.81,-122.69,1.4,84,40,2.24,1573883938
719,5387494,Ridgecrest,US,35.62,-117.67,54.0,34,1,6.93,1573883917
720,3146487,Raudeberg,NO,61.99,5.14,35.6,74,99,6.93,1573883938
721,2654728,Bridlington,GB,54.08,-0.19,48.99,100,82,3.36,1573883938
722,3573197,Hamilton,BM,32.3,-64.78,71.6,94,75,8.05,1573883938
723,2267226,Lagos,PT,37.1,-8.67,48.99,70,0,11.41,1573883938
724,3451750,Recreio,BR,-21.52,-42.47,66.0,99,100,1.99,1573883938
725,2519651,Cehegin,ES,38.09,-1.8,46.99,84,0,4.0,1573883938
726,2177413,Ayr,AU,-19.58,147.4,84.0,62,9,1.01,1573883999
727,1505579,Inta,RU,66.04,60.13,30.2,93,96,23.4,1573884000
728,1796663,Sanming,CN,26.24,117.6,77.36,32,0,2.39,1573884000
729,352733,Marsa Matruh,EG,31.35,27.25,66.2,88,20,3.36,1573884000
730,2152659,Port Macquarie,AU,-31.43,152.91,77.0,56,40,16.11,1573884000
731,3576994,Cockburn Town,TC,21.46,-71.14,80.85,77,12,12.55,1573884000
732,1851462,Sukumo,JP,32.94,132.72,62.51,47,0,10.27,1573884000
733,2173125,Burnie,AU,-41.05,145.91,57.99,51,86,8.99,1573884000
734,3465342,Puerto Suarez,BO,-18.96,-57.8,68.59,87,100,3.29,1573884000
735,1861416,Ishigaki,JP,24.34,124.16,80.6,69,75,14.99,1573884000
736,2012956,Yerbogachen,RU,61.28,108.01,-16.67,91,99,4.81,1573883789
737,1649593,Bandar,ID,-4.2,104.14,95.14,34,65,3.29,1573884001
738,1512342,Almazar,UZ,40.32,69.01,48.2,70,40,6.71,1573884001
739,3662927,Pauini,BR,-7.71,-67.0,71.47,98,100,1.32,1573884001
740,2396518,Port-Gentil,GA,-0.72,8.78,77.0,94,75,6.2,1573884001
741,152497,Muriti,TZ,-1.99,32.93,71.6,88,75,7.18,1573884001
742,2276492,Harper,LR,4.38,-7.71,73.36,95,85,1.99,1573884001
743,1168700,Ormara,PK,25.21,64.64,76.03,52,0,7.2,1573884001
744,1517637,Ushtobe,KZ,45.25,77.98,25.54,40,0,7.52,1573884002
745,2144764,Wangaratta,AU,-36.36,146.32,73.4,22,49,13.87,1573884002
746,7647007,San Carlos de Bariloche,AR,-41.13,-71.31,48.2,61,0,26.4,1573884002
747,5866063,Kenai,US,60.55,-151.26,39.99,80,90,8.05,1573884003
748,3893726,Constitucion,CL,-35.33,-72.42,56.17,91,23,4.81,1573884004
749,400742,Kandara,KE,-0.9,37.0,68.0,72,40,10.29,1573884004
750,1648636,Bitung,ID,1.44,125.19,80.6,83,40,3.36,1573884004
751,1246294,Galle,LK,6.04,80.22,82.62,75,1,9.19,1573884005
752,153220,Morogoro,TZ,-6.82,37.67,77.0,83,75,13.87,1573884005
753,3396277,Limoeiro,BR,-7.87,-35.44,80.6,74,40,6.93,1573884006
754,4844275,Vernon,US,41.84,-72.47,41.0,52,40,12.75,1573884006
755,2236967,Soyo,AO,-6.13,12.37,76.8,91,100,5.03,1573884006
756,4033077,Vaitape,PF,-16.52,-151.75,79.09,83,39,19.46,1573884006
757,1731298,Aloleng,PH,16.13,119.78,86.05,66,66,5.86,1573884006
758,118704,Ravar,IR,31.27,56.81,47.73,46,0,11.41,1573884007
759,244878,Biltine,TD,14.53,20.93,79.93,28,31,19.62,1573884007
760,463655,Zenzeli,RU,45.92,47.05,43.52,68,98,18.05,1573884007
761,2451778,San,ML,13.3,-4.9,75.15,23,75,5.88,1573883718
762,3896774,Carahue,CL,-38.71,-73.16,50.0,100,90,3.36,1573884008
763,739600,Sinop,TR,42.03,35.15,50.0,87,75,5.82,1573884008
764,6111867,Port Hawkesbury,CA,45.62,-61.36,42.01,64,90,10.29,1573884008
765,305681,Kumluca,TR,36.37,30.29,61.39,58,0,2.95,1573884009
766,2138522,Poya,NC,-21.35,165.16,74.84,77,0,15.95,1573884010
767,3480908,La Asuncion,VE,11.03,-63.86,73.35,90,15,2.06,1573884010
768,3422683,Kangaatsiaq,GL,68.31,-53.46,28.49,88,100,21.47,1573884010
769,3696466,Huancabamba,PE,-5.24,-79.45,48.38,97,100,1.25,1573884010
770,1255816,Sompeta,IN,18.93,84.6,82.17,55,40,5.48,1573884011
771,5391615,San Anselmo,US,37.97,-122.56,57.0,93,90,10.29,1573884011
772,3931276,Puno,PE,-15.84,-70.03,42.66,77,99,1.86,1573884011
773,739236,Sungurlu,TR,40.17,34.38,50.0,60,71,5.86,1573884011
774,2290849,Bouna,CI,9.27,-3.0,75.99,72,77,3.29,1573884011
775,2240449,Luanda,AO,-8.83,13.24,77.0,88,75,4.7,1573883798
776,2360372,Gorom-Gorom,BF,14.45,-0.24,73.8,19,4,3.49,1573884011
777,1513996,Gazalkent,UZ,41.57,69.78,46.4,40,92,6.93,1573884011
778,364933,Umm Kaddadah,SD,13.6,26.69,78.58,30,6,21.12,1573884012
779,2024449,Elban,RU,50.1,136.51,7.39,57,100,8.81,1573884012
780,1795632,Shenjiamen,CN,29.96,122.3,67.39,77,0,17.18,1573884012
781,937136,Zeerust,ZA,-25.54,26.07,73.4,33,0,10.29,1573884012
782,5098745,Hackettstown,US,40.85,-74.83,41.0,51,1,9.17,1573884012
783,477940,Ust-Tsilma,RU,65.44,52.15,31.78,88,100,13.2,1573884073
784,3492985,Barahona,DO,18.21,-71.1,80.29,77,40,8.97,1573884003
785,1786657,Yinchuan,CN,38.48,106.21,48.31,19,94,2.13,1573884073
786,6156244,Stephenville,CA,48.55,-58.59,39.0,86,90,23.04,1573884074
787,86049,Jalu,LY,29.03,21.55,58.96,56,22,7.52,1573884074
788,1486371,Yarkovo,RU,54.81,82.6,-4.0,76,33,11.18,1573884074
789,2018888,Novopokrovka,RU,45.85,134.51,15.78,38,99,14.5,1573884074
790,3621607,Santa Cruz,CR,10.26,-85.58,75.2,94,94,2.24,1573884074
791,2179825,Waitati,NZ,-45.75,170.57,50.0,95,69,17.0,1573884074
792,3996069,Santa Isabel,MX,32.63,-115.58,66.2,39,1,4.7,1573884074
793,2034691,Songjianghe,CN,42.18,127.48,28.13,50,43,6.22,1573884075
794,2640351,Peterhead,GB,57.51,-1.8,37.99,93,40,10.29,1573884075
795,232834,Kagadi,UG,0.95,30.8,76.48,59,77,1.45,1573884075
796,4681976,Cleburne,US,32.35,-97.39,46.99,55,1,5.12,1573884075
797,3915350,San Miguel,BO,-10.85,-65.44,72.43,99,100,1.99,1573884075
798,5393049,Santa Clarita,US,34.39,-118.54,62.6,82,1,11.95,1573883926
799,1810309,Gaoyou,CN,32.79,119.43,82.99,32,28,6.4,1573884075
800,561347,Glazov,RU,58.14,52.65,31.91,81,100,7.9,1573884075
801,5525577,Lubbock,US,33.58,-101.86,46.99,64,1,6.93,1573883828
802,3491161,Bull Savanna,JM,17.89,-77.59,70.25,94,34,1.7,1573884076
803,2206900,Westport,NZ,-41.75,171.6,52.72,96,100,5.17,1573884076
804,582447,Almaznyy,RU,48.03,40.04,39.2,80,75,24.61,1573884076
805,2872028,Melsungen,DE,51.13,9.54,39.99,93,75,2.24,1573884076
806,3557689,Guantanamo,CU,20.14,-75.21,78.8,88,75,5.82,1573884076
807,2077895,Alice Springs,AU,-23.7,133.88,93.2,6,0,14.99,1573884076
808,4180386,Athens,US,33.96,-83.39,46.0,81,90,5.82,1573884076
809,803494,Orel-Izumrud,RU,43.46,39.92,51.01,52,40,13.42,1573884076
810,1068865,Arivonimamo,MG,-19.01,47.18,71.6,73,40,4.7,1573884076
811,330534,Mizan Teferi,ET,6.99,35.58,74.37,61,46,0.43,1573884076
812,1106643,Quatre Cocos,MU,-20.21,57.76,78.8,69,75,17.22,1573884076
813,1626542,Sorong,ID,-0.86,131.25,83.28,88,85,2.26,1573884076
814,3520994,Puerto Escondido,MX,15.86,-97.07,67.39,74,66,5.77,1573884076
815,2146219,Hervey Bay,AU,-25.3,152.85,84.2,54,0,21.92,1573884077
816,3456160,Olinda,BR,-22.82,-43.41,71.6,88,75,3.36,1573884077
817,750468,Boyabat,TR,41.47,34.77,50.0,87,75,5.82,1573884077
818,2440485,Niamey,NE,13.52,2.11,75.2,33,52,1.12,1573884077
819,3435038,Dolores,AR,-36.31,-57.68,63.39,69,52,11.59,1573884077
820,3372760,Praia da Vitoria,PT,38.73,-27.07,59.0,82,75,5.88,1573884077
821,528075,Rassvet,RU,49.11,45.47,35.28,66,0,13.13,1573884077
822,3661944,Tefe,BR,-3.35,-64.71,71.28,99,100,2.84,1573883841
823,3451138,Rio Grande,BR,-32.03,-52.1,55.99,98,0,5.53,1573883841
824,1277835,Bahadurgarh,IN,28.69,76.93,75.2,53,20,5.82,1573884077
825,1328421,Pathein,MM,16.78,94.73,89.42,55,70,1.45,1573884077
826,2636790,Stornoway,GB,58.21,-6.39,37.4,93,100,6.51,1573884077
827,4167178,Ormond Beach,US,29.29,-81.06,57.99,93,90,6.93,1573884078
828,1640902,Kawalu,ID,-7.38,108.21,86.45,39,15,8.25,1573884078
829,1731248,Alugan,PH,12.22,125.48,79.14,89,100,5.61,1573884078
830,6173361,Vanderhoof,CA,54.02,-124.02,33.44,90,61,4.32,1573884014
831,3466902,Carmo do Paranaiba,BR,-19.0,-46.32,64.99,100,100,1.88,1573883905
832,2122293,Ozernovskiy,RU,51.5,156.52,28.08,63,100,18.43,1573884078
833,3981391,Tomatlan,MX,19.93,-105.25,67.95,97,100,4.27,1573884078
834,865506,Pravokubanskiy,RU,43.92,41.88,48.92,29,0,1.9,1573884078
835,1797929,Qingdao,CN,36.09,120.35,66.2,59,14,11.18,1573884078
836,148088,Haftoni,AZ,38.76,48.76,50.0,66,90,9.17,1573884078
837,2122783,Katangli,RU,51.71,143.23,9.36,78,99,8.43,1573884078
838,5666639,Missoula,US,46.87,-114.0,36.0,93,90,8.05,1573883975
839,4297983,Lexington,US,38.05,-84.5,32.0,74,1,8.05,1573884014
840,4580543,Greenville,US,34.85,-82.4,48.0,100,90,3.36,1573884140
841,4354428,Essex,US,39.31,-76.48,43.0,65,1,4.7,1573884140
842,2324433,Abonnema,NG,4.71,6.79,73.4,100,75,2.59,1573884140
843,2023469,Markova,RU,52.21,104.21,1.4,77,90,20.13,1573884140
844,508068,Podosinovets,RU,60.28,47.06,29.34,96,100,2.82,1573884140
845,4194121,Fairburn,US,33.57,-84.58,46.99,81,75,9.17,1573884140
846,3347762,Lubango,AO,-14.92,13.49,66.31,58,33,0.78,1573884140
847,2151187,Roma,AU,-26.57,148.79,95.4,9,0,10.69,1573884140
848,1175712,Jiwani,PK,25.05,61.74,75.83,31,13,4.34,1573884140
849,752627,Akcaabat,TR,41.02,39.57,60.8,72,0,4.7,1573884141
850,3141667,Roald,NO,62.58,6.12,33.8,74,83,2.24,1573884141
851,3883615,Lautaro,CL,-38.53,-72.44,50.0,100,90,3.36,1573884141
852,3448455,Sao Miguel do Araguaia,BR,-13.28,-50.16,74.26,85,75,3.36,1573884025
853,1808534,Helong,CN,25.94,116.13,81.95,31,0,1.52,1573884141
854,3352263,Warmbad,NA,-28.45,18.73,72.81,35,0,8.7,1573884141
855,1604771,Yaring,TH,6.87,101.37,82.63,75,84,12.75,1573884141
856,1808316,Yiyang,CN,28.59,112.35,82.98,38,43,9.37,1573884141
857,5232741,Watertown,US,44.9,-97.12,39.2,69,1,16.11,1573884141
858,777682,Skjervoy,NO,70.03,20.97,36.68,64,22,7.94,1573884142
859,3981460,Coahuayana,MX,18.62,-100.35,69.03,92,91,2.57,1573884142
860,2068110,Kununurra,AU,-15.77,128.74,105.8,10,16,14.99,1573884142
861,608270,Shubarshi,KZ,48.59,57.19,31.82,39,0,6.08,1573884142
862,207596,Mweka,CD,-4.85,21.56,74.35,93,100,1.28,1573884142
863,3948613,Acari,PE,-15.44,-74.62,55.74,81,48,0.56,1573884142
864,2100765,Angoram,PG,-4.06,144.07,89.13,63,69,7.43,1573884143
865,3868626,Valparaiso,CL,-33.04,-71.63,59.0,93,0,3.36,1573884143
866,3378690,Fort Wellington,GY,6.4,-57.6,82.42,77,0,10.45,1573884143
867,123941,Minab,IR,27.15,57.07,73.4,40,75,4.7,1573884143
868,1505228,Izhmorskiy,RU,56.19,86.64,-2.18,71,82,12.19,1573884143
869,551145,Kem,RU,64.96,34.58,29.91,88,99,5.55,1573884143
870,2126638,Bogorodskoye,RU,52.37,140.44,3.02,94,100,3.98,1573884143
871,1299237,Pyapon,MM,16.29,95.68,88.5,58,0,1.5,1573884143
872,178073,Wundanyi,KE,-3.4,38.37,76.68,72,70,9.57,1573884144
873,1215839,Urgut,UZ,39.41,67.25,50.0,43,100,11.41,1573884144
874,1337618,Manadhoo,MV,5.77,73.38,82.4,77,100,17.31,1573884144
875,5431710,Montrose,US,38.48,-107.88,41.0,47,1,5.82,1573884144
876,3152548,Hjelset,NO,62.78,7.5,33.8,56,95,6.93,1573884144
877,1242110,Kalmunai,LK,7.42,81.82,83.14,72,29,7.81,1573884144
878,741240,Of,TR,40.94,40.27,60.8,72,0,4.7,1573884144
879,1071296,Antalaha,MG,-14.9,50.28,80.17,82,27,11.43,1573884144
880,2016110,Sretensk,RU,52.24,117.7,3.33,46,0,5.41,1573884145
881,1628884,Sampit,ID,-2.54,112.95,93.22,41,95,5.66,1573884145
882,2121197,Sinegorye,RU,62.09,150.53,-6.36,99,100,5.23,1573884145
883,4034438,Haapiti,PF,-17.57,-149.87,82.4,65,75,4.7,1573884145
884,3461606,Ibicarai,BR,-14.87,-39.59,80.6,78,20,5.82,1573884145
885,2541479,Nador,MA,35.17,-2.93,53.6,62,20,12.75,1573883923
886,4033356,Tiarei,PF,-17.53,-149.33,82.4,65,75,4.7,1573884145
887,1728675,Balabac,PH,7.99,117.06,86.5,64,72,2.35,1573884145
888,2206894,Hokitika,NZ,-42.72,170.96,57.81,86,100,20.58,1573884145
889,1816790,Beibei,CN,29.83,106.43,62.6,72,40,3.76,1573884146
890,694137,Shevchenkove,UA,49.7,37.18,33.8,100,75,11.18,1573884146
891,3868326,Victoria,CL,-38.23,-72.33,50.9,97,77,1.36,1573884146
892,665754,Suraia,RO,45.68,27.38,46.4,100,90,3.36,1573884146
893,1271476,Guwahati,IN,26.18,91.75,84.2,70,20,5.82,1573884207
894,1784131,Huilong,CN,31.15,106.5,61.11,61,100,3.18,1573884207
895,3899539,Antofagasta,CL,-23.65,-70.4,62.6,77,90,3.36,1573884207
896,3924674,Xapuri,BR,-10.65,-68.5,70.92,99,100,2.04,1573884207
897,1267754,Karimpur,IN,23.97,88.62,84.2,48,0,3.76,1573884207
898,1655140,Pakxan,LA,18.39,103.66,83.97,55,26,4.43,1573884207
899,3840300,Presidencia Roque Saenz Pena,AR,-26.79,-60.44,66.07,47,0,8.14,1573884207
900,2452655,Niono,ML,14.25,-5.99,77.27,21,49,7.36,1573884208
901,294068,Netivot,IL,31.42,34.59,64.0,82,25,1.99,1573884208
902,6068416,Mayo,CA,63.59,-135.9,3.2,77,90,11.41,1573884208
903,330120,NEDJO,ET,9.5,35.5,67.5,65,0,3.65,1573884208
904,3846864,Lincoln,AR,-34.87,-61.53,64.09,77,3,9.24,1573884208
905,1643837,Gorontalo,ID,0.54,123.06,85.1,58,11,8.21,1573884208
906,3848950,La Rioja,AR,-29.41,-66.86,69.51,52,0,2.17,1573884208
907,2407262,Lungi,SL,9.22,-12.68,73.69,96,77,0.78,1573884208
908,3354247,Ondangwa,NA,-17.91,15.98,73.4,20,73,13.87,1573884208
909,2014927,Tulun,RU,54.56,100.58,-2.61,66,96,9.98,1573884208
910,471308,Voyvozh,RU,62.89,54.96,30.18,84,94,11.56,1573884208
911,2460755,Bafoulabe,ML,13.81,-10.83,76.24,24,85,2.39,1573884208
912,2562250,Zurrieq,MT,35.83,14.47,69.8,73,100,18.34,1573884208
913,905846,Mpika,ZM,-11.84,31.4,72.36,69,89,2.75,1573884208
914,1803841,Lianzhou,CN,24.79,112.38,80.83,41,0,6.31,1573884208
915,2458334,Douentza,ML,15.01,-2.95,69.84,23,9,0.11,1573884209
916,1277814,Lalpur,IN,28.94,79.46,80.67,42,19,5.1,1573884209
917,1526970,Abay,KZ,49.63,72.87,19.4,37,10,6.71,1573884209
918,1235846,Matara,LK,5.95,80.54,87.49,62,0,8.75,1573884209
919,2022083,Kirensk,RU,57.78,108.12,-7.94,83,88,1.86,1573884209
920,539284,Kumeny,RU,58.11,49.92,32.81,71,100,8.12,1573884209
921,3664659,Carauari,BR,-4.88,-66.9,73.24,99,100,2.39,1573884209
922,2058430,Whyalla,AU,-33.04,137.58,66.2,52,2,20.8,1573884209
923,1624725,Tarakan,ID,3.3,117.63,87.8,62,40,5.82,1573884209
924,245669,Adre,TD,13.47,22.2,73.89,35,12,17.72,1573884209
925,1862505,Hirara,JP,24.8,125.28,80.6,69,40,14.99,1573884209
926,2017215,Sangar,RU,63.92,127.47,-15.0,96,100,4.54,1573884209
927,315795,Elbistan,TR,38.2,37.19,48.07,62,28,3.76,1573884209
928,317241,Demirci,TR,39.05,28.66,55.99,63,0,7.0,1573884209
929,60019,Eyl,SO,7.98,49.82,80.1,78,5,22.1,1573884209
930,3389822,Salinopolis,BR,-0.61,-47.36,81.12,80,1,15.9,1573884210
931,359783,Asyut,EG,27.18,31.19,60.8,72,2,11.41,1573884210
932,3073660,Klatovy,CZ,49.4,13.29,43.0,100,95,4.7,1573884210
933,1490042,Tashtagol,RU,52.76,87.85,-2.97,76,100,3.51,1573884210
934,2633274,Akureyri,IS,65.68,-18.09,33.8,69,0,11.41,1573884211
935,2965761,Carndonagh,IE,55.25,-7.27,34.52,90,100,1.36,1573884211
936,217834,Bukama,CD,-9.2,25.85,77.72,77,100,2.91,1573884211
937,3860443,Comodoro Rivadavia,AR,-45.87,-67.48,57.2,35,96,26.4,1573884211
938,1275462,Jaypur,IN,23.05,87.44,83.98,48,0,4.0,1573884211
939,5228673,Huron,US,44.36,-98.21,41.0,69,1,16.11,1573884211
940,350550,Qena,EG,26.16,32.72,62.6,72,41,9.57,1573884211
941,298033,Viransehir,TR,37.24,39.76,61.75,29,0,5.7,1573884211
942,1714503,Dolores,PH,14.02,121.4,89.01,70,40,8.05,1573884211
943,2290582,Jackville,CI,5.21,-4.42,80.6,88,20,2.24,1573884212
944,2662689,Visby,SE,57.64,18.3,46.99,87,99,12.75,1573884142
945,2031964,Darhan,MN,49.49,105.92,10.36,91,100,18.66,1573884212
946,3347019,Namibe,AO,-15.19,12.15,71.49,76,85,14.36,1573884212
947,3460087,Jardim,BR,-21.48,-56.15,65.5,66,3,2.24,1573884273
948,3919720,Colquechaca,BO,-18.7,-66.0,46.78,71,88,2.77,1573884274
949,4683317,Corinth,US,33.15,-97.06,46.4,52,1,5.08,1573884274
950,199604,Chepareria,KE,1.32,35.2,73.69,55,2,3.96,1573884274
951,1264860,Lodhikheda,IN,21.58,78.83,78.8,54,1,2.24,1573884274
952,6243926,Seddon,NZ,-41.67,174.07,64.0,73,19,15.01,1573884274
953,1800065,Nangong,CN,37.36,115.37,60.6,46,20,8.12,1573884274
954,1280849,Kashi,CN,39.45,75.98,60.8,6,20,15.66,1573884274
955,1813088,Dafeng,CN,33.2,120.46,72.41,33,38,8.86,1573884274
956,3147822,Gravdal,NO,59.79,5.78,42.01,62,97,9.17,1573884274
957,5895424,Bay Roberts,CA,47.58,-53.28,41.0,80,75,33.33,1573884274
958,560191,Gordeyevka,RU,52.96,31.97,37.36,86,17,10.11,1573884274
959,3693584,Pimentel,PE,-6.84,-79.94,64.4,88,100,13.87,1573884275
960,5836068,Rawlins,US,41.79,-107.24,44.6,41,1,4.7,1573884275
961,251292,Zagora,GR,39.45,23.1,55.99,93,74,4.7,1573884275
962,1337619,Ugoofaaru,MV,5.67,73.0,81.36,81,100,17.9,1573884275
963,6205099,Waverley,NZ,-46.39,168.38,55.0,75,93,11.99,1573884275
964,1258698,Rameswaram,IN,9.28,79.3,81.75,80,8,10.94,1573884102
965,2181997,Takaka,NZ,-40.86,172.81,63.0,94,72,10.0,1573884275
966,2120047,Ust-Omchug,RU,61.13,149.63,-0.72,95,100,10.31,1573884275
967,1735799,Sri Aman,MY,1.24,111.46,89.6,75,75,1.12,1573884275
968,779330,Kautokeino,NO,69.01,23.04,10.09,81,0,3.67,1573884275
969,2516852,Guimar,ES,28.3,-16.43,64.99,87,90,17.22,1573884275
970,542423,Krasnoborsk,RU,61.56,45.93,30.99,97,100,2.98,1573884276
971,1848373,Fukue,JP,35.03,136.69,64.99,45,20,6.93,1573884276
972,2220853,Yokadouma,CM,3.52,15.05,71.64,94,100,0.94,1573884276
973,3938531,Iberia,PE,-11.41,-69.49,69.08,99,100,1.48,1573884276
974,1273960,Chotila,IN,22.42,71.2,82.4,65,0,3.36,1573884276
975,4945283,Newton,US,42.34,-71.21,39.0,59,32,14.99,1573884276
976,1498919,Lugovoy,RU,59.72,65.88,28.87,89,100,10.2,1573884276
977,1808749,Hecun,CN,29.94,119.31,77.27,34,0,2.53,1573884276
978,1519691,Sarkand,KZ,45.41,79.91,16.81,66,0,3.8,1573884276
979,2129163,Mombetsu,JP,44.35,143.35,30.2,74,75,6.93,1573884276
980,4035249,Lufilufi,WS,-13.87,-171.6,80.01,88,51,16.58,1573884276
981,1504382,Kargasok,RU,59.06,80.87,1.22,82,92,14.54,1573884276
982,5886182,Antigonish,CA,45.62,-61.99,42.01,64,90,10.29,1573884276
983,2122493,Omsukchan,RU,62.53,155.8,-6.93,100,100,7.27,1573884276
984,1635815,Maumere,ID,-8.63,122.22,85.93,59,2,7.05,1573884277
985,2262963,Vale da Amoreira,PT,38.65,-9.04,50.0,81,11,2.24,1573884277
986,2477537,Tazmalt,DZ,36.39,4.4,46.4,75,75,14.99,1573884191
987,2023333,Kachug,RU,53.96,105.89,1.78,63,100,9.1,1573884277
988,5847486,Kailua,US,21.39,-157.74,80.6,88,40,3.36,1573884185
989,1515029,Ulaangom,MN,49.98,92.07,4.89,36,19,13.27,1573884277
990,1282898,Pokhara,NP,28.21,83.99,77.31,52,100,2.51,1573884277
991,58933,Garowe,SO,8.41,48.48,78.15,47,0,12.39,1573884277
992,3663142,Novo Aripuana,BR,-5.12,-60.38,72.82,97,100,2.51,1573884277
993,6166142,Thunder Bay,CA,48.41,-89.26,24.01,71,5,3.36,1573884277
994,4708328,Lumberton,US,30.27,-94.2,44.6,93,1,2.33,1573884277
995,1805733,Jinchang,CN,38.52,102.19,38.14,27,100,19.24,1573884277
996,2035836,Manzhouli,CN,49.6,117.43,14.41,47,0,7.23,1573884277
997,1260771,Palasa,IN,18.77,84.42,82.17,55,40,5.48,1573884277
998,2017658,Preobrazheniye,RU,42.9,133.91,27.43,29,0,18.05,1573884278
999,107304,Buraydah,SA,26.33,43.97,62.6,93,40,2.24,1573884278
1000,1000006,Greytown,ZA,-29.06,30.59,61.32,83,97,0.6,1573884278
1001,1257698,Sakleshpur,IN,12.94,75.79,77.18,71,50,10.31,1573884278
1002,5767918,Pierre,US,44.37,-100.35,33.01,92,1,2.55,1573884339
1003,1488774,Tyukhtet,RU,56.54,89.31,-1.37,84,100,13.31,1573884339
1004,3464724,Diamantino,BR,-14.4,-56.44,72.46,93,95,1.32,1573884339
1005,3131500,Visnes,NO,59.36,5.22,44.01,60,100,9.17,1573884339
1006,137956,Darab,IR,28.75,54.55,60.69,39,18,5.77,1573884339
1007,3663475,Maraa,BR,-1.83,-65.37,72.79,95,99,2.55,1573884339
1008,5179193,Bath,US,40.73,-75.39,39.2,59,75,9.17,1573884339
1009,2025286,Chuguyevka,RU,44.17,133.87,17.49,38,0,17.11,1573884340
1010,2192362,Christchurch,NZ,-43.53,172.64,70.0,37,34,19.46,1573884193
1011,2021031,Kyren,RU,51.68,102.13,-12.3,94,100,7.52,1573884340
1012,2015852,Svetlaya,RU,46.54,138.33,18.72,48,73,14.5,1573884340
1013,2399001,Mayumba,GA,-3.44,10.65,76.24,92,100,8.5,1573884340
1014,1502041,Krasnoyarka,RU,55.33,73.1,14.0,51,75,17.9,1573884340
1015,2020888,Lazo,RU,43.38,133.91,18.59,35,0,18.05,1573884340
1016,5919850,Chapais,CA,49.78,-74.86,8.6,84,90,11.41,1573884341
1017,6301965,Palmerston,AU,-12.49,130.99,97.0,52,20,13.87,1573884341
1018,64814,Bandarbeyla,SO,9.49,50.81,80.29,77,0,17.25,1573884341
1019,3838233,Salta,AR,-24.79,-65.41,71.6,77,74,2.24,1573884140
1020,2025630,Chara,RU,56.9,118.26,-10.95,92,100,3.22,1573884341
1021,1250161,Batticaloa,LK,7.71,81.69,87.4,62,18,6.67,1573884341
1022,1161724,Chabahar,IR,25.29,60.65,76.66,18,43,5.17,1573884342
1023,5742974,North Bend,US,43.41,-124.22,54.0,100,90,2.89,1573884342
1024,3356213,Khorixas,NA,-20.37,14.96,70.57,30,83,3.87,1573884342
1025,2303611,Axim,GH,4.87,-2.24,74.41,92,72,1.54,1573884342
1026,1529376,Korla,CN,41.76,86.15,35.76,14,16,6.02,1573884342
1027,1805857,Jieshi,CN,22.82,115.83,78.01,49,0,8.77,1573884342
1028,2288105,Grand-Lahou,CI,5.24,-5.0,81.64,78,76,6.49,1573884342
1029,1082243,Ambilobe,MG,-13.19,49.05,90.48,50,1,10.49,1573884342
1030,3164387,Vieste,IT,41.88,16.18,64.0,72,75,9.17,1573884342
1031,4533029,Chickasha,US,35.05,-97.94,43.0,69,1,6.93,1573884342
1032,2641181,Norwich,GB,52.63,1.29,44.01,100,97,2.3,1573884098
1033,1636308,Manokwari,ID,-0.87,134.08,78.49,73,66,2.19,1573884136
1034,4328010,Houma,US,29.6,-90.72,48.2,41,1,5.82,1573884343
1035,1172513,Lachi,PK,33.38,71.34,68.63,46,53,8.48,1573884343
1036,3936456,Lima,PE,-12.06,-77.04,66.2,82,90,10.29,1573884304
1037,2188874,Russell,NZ,-35.26,174.12,68.0,64,44,5.99,1573884343
1038,2966843,Athenry,IE,53.3,-8.75,39.2,93,88,2.24,1573884343
1039,1521379,Lenger,KZ,42.18,69.89,44.6,52,68,4.47,1573884343
1040,486874,Suda,RU,59.15,37.56,33.8,100,90,6.71,1573884343
1041,8142546,Lasem,ID,-6.99,112.52,98.15,27,30,7.47,1573884344
1042,2038154,Changping,CN,40.22,116.23,51.01,61,90,4.47,1573884344
1043,3139597,Sistranda,NO,63.73,8.83,37.0,64,100,16.11,1573884344
1044,2187908,Maketu,NZ,-37.76,176.45,70.0,64,90,1.99,1573884344
1045,4429295,Hattiesburg,US,31.33,-89.29,42.8,82,1,6.93,1573884344
1046,3733861,Curillo,CO,1.03,-75.92,72.32,98,91,1.07,1573884344
1047,2318374,Gboko,NG,7.32,9.0,76.59,88,100,6.69,1573884344
1048,218253,Bondo,CD,3.81,23.69,75.76,80,97,2.13,1573884344
1049,3899462,Arauco,CL,-37.25,-73.32,59.0,100,90,2.24,1573884344
1050,3464335,Elias Fausto,BR,-23.04,-47.37,68.0,77,12,9.17,1573884344
1051,2757220,Den Helder,NL,52.96,4.76,42.01,86,90,5.82,1573884344
1052,5914132,Campbell River,CA,50.02,-125.24,44.01,93,90,3.36,1573884058
1053,2338876,Apomu,NG,6.85,3.21,77.0,94,20,2.33,1573884344
1054,1626703,Soe,ID,-9.86,124.28,86.27,49,25,10.11,1573884345
1055,5952330,Ferme-Neuve,CA,46.7,-75.45,6.08,90,36,4.94,1573884406
1056,3148133,Larsnes,NO,62.2,5.58,33.8,74,100,9.17,1573884406
1057,3416888,Grindavik,IS,63.84,-22.43,37.4,86,40,19.46,1573884406
1058,162099,Buzmeyin,TM,38.05,58.21,42.8,87,90,4.7,1573884406
1059,2206854,Gisborne,NZ,-38.66,178.02,73.0,45,45,8.99,1573884406
1060,3701195,Santa Fe,PA,8.66,-78.16,72.84,97,100,1.3,1573884406
1061,6149374,Slave Lake,CA,55.28,-114.77,35.6,93,90,10.29,1573884406
1062,1512218,Aban,RU,56.67,96.06,-3.28,88,100,10.6,1573884406
1063,687652,Zarichne,UA,51.81,26.13,41.13,95,74,7.4,1573884406
1064,5917275,Carman,CA,49.51,-98.0,28.4,74,1,14.99,1573884406
1065,1068971,Antsohihy,MG,-14.88,47.99,91.42,55,83,1.57,1573884406
1066,5654391,Glendive,US,47.11,-104.71,35.6,75,20,5.82,1573884406
1067,2214827,Mizdah,LY,31.45,12.98,55.89,27,100,6.89,1573884406
1068,2129072,Kushiro,JP,43.11,144.15,37.4,37,20,20.8,1573884407
1069,2290462,Danane,CI,7.26,-8.15,68.85,93,99,1.03,1573884407
1070,5808079,Redmond,US,47.67,-122.12,53.01,93,90,5.82,1573884143
1071,2033667,Xinqing,CN,48.28,129.53,7.41,56,79,10.83,1573884407
1072,2271968,Aljezur,PT,37.31,-8.8,48.99,71,5,4.0,1573884407
1073,876177,Luau,AO,-10.71,22.22,68.16,92,100,3.36,1573884407
1074,1213855,Sibolga,ID,1.74,98.78,82.98,79,10,4.97,1573884407
1075,4033557,Tautira,PF,-17.73,-149.15,82.4,65,75,4.7,1573884407
1076,5951036,Fairview,CA,56.07,-118.38,23.0,92,5,4.7,1573884407
1077,1278354,Arsikere,IN,13.31,76.26,80.08,64,19,9.42,1573884407
1078,3697838,Contamana,PE,-7.35,-75.01,72.99,99,96,1.52,1573884407
1079,3385658,Urucui,BR,-7.23,-44.56,75.61,61,0,3.67,1573884407
1080,314967,Fethiye,TR,36.62,29.12,60.8,72,20,5.82,1573884407
1081,2154826,Wonthaggi,AU,-38.6,145.59,61.0,66,77,12.59,1573884408
1082,2459775,Bougouni,ML,11.42,-7.49,73.78,33,75,1.16,1573884408
1083,6057842,Lively,CA,46.43,-81.15,5.0,77,40,9.17,1573884408
1084,189741,Lamu,KE,-2.27,40.9,84.2,79,20,11.21,1573884408
1085,2641910,Nairn,GB,57.58,-3.88,37.99,100,20,2.86,1573884408
1086,1337610,Thinadhoo,MV,0.53,72.93,79.95,81,98,8.66,1573884408
1087,1527497,Kyzyl-Suu,KG,42.34,78.0,40.95,56,0,4.12,1573884408
1088,611717,Tbilisi,GE,41.69,44.8,44.6,81,90,5.82,1573884173
1089,1184752,Akora,PK,34.0,72.13,59.0,93,90,6.93,1573884408
1090,1182998,Bela,PK,26.23,66.31,77.67,39,0,4.59,1573884408
1091,3445418,Vazante,BR,-17.99,-46.9,68.83,95,100,1.72,1573884350
1092,2015217,Tokur,RU,53.13,132.9,-5.26,90,100,2.3,1573884408
1093,490040,Sovetskiy,RU,56.76,48.47,31.35,79,100,12.44,1573884409
1094,361058,Alexandria,EG,31.2,29.89,71.6,64,40,11.41,1573884409
1095,2269142,Colares,PT,38.8,-9.45,50.0,81,17,2.24,1573884409
1096,3353715,Outjo,NA,-20.11,16.16,64.4,22,36,13.73,1573884409
1097,2094027,Kieta,PG,-6.22,155.63,84.27,69,49,2.95,1573884409
1098,2255542,Owando,CG,-0.49,15.91,72.55,96,100,2.42,1573884409
1099,2444219,Goure,NE,13.98,10.27,79.0,21,66,4.0,1573884409
1100,933787,Dutlwe,BW,-23.98,23.93,79.92,17,0,7.56,1573884409
1101,49747,Xuddur,SO,4.12,43.89,78.42,63,60,18.84,1573884409
1102,2646276,Ilfracombe,GB,51.21,-4.13,46.99,100,75,5.82,1573884409
1103,2108502,Honiara,SB,-9.43,159.96,84.2,79,75,4.7,1573884389
1104,2015686,Talakan,RU,50.29,130.28,1.65,81,100,9.17,1573884409
1105,3580661,George Town,KY,19.29,-81.37,78.01,86,3,1.1,1573884409
1106,468747,Yashkul,RU,46.17,45.34,45.25,67,100,19.3,1573884409
1107,1513087,Nurota,UZ,40.56,65.69,46.4,52,100,2.24,1573884410
1108,2428394,Mao,TD,14.12,15.31,77.27,21,0,12.28,1573884471
1109,1736660,Kota Belud,MY,6.35,116.43,87.8,74,75,3.36,1573884471
1110,2094746,Kandrian,PG,-6.21,149.55,79.93,79,99,5.64,1573884471
1111,3176739,Formello,IT,42.08,12.4,59.0,93,40,6.93,1573884471
1112,2744337,Winsum,NL,53.33,6.52,39.99,100,100,4.7,1573884471
1113,1486910,Komsomolskiy,RU,67.55,63.78,30.15,95,100,17.56,1573884471
1114,1062663,Mahajanga,MG,-15.72,46.32,84.2,74,75,5.82,1573884471
1115,89113,Ajdabiya,LY,30.75,20.22,59.07,46,42,11.74,1573884471
1116,1625908,Sungairaya,ID,0.7,108.9,86.68,67,48,6.26,1573884471
1117,2109528,Buala,SB,-8.15,159.59,84.42,69,97,3.85,1573884471
1118,2019135,Nizhniy Kuranakh,RU,58.84,125.49,-7.44,92,100,8.48,1573884471
1119,3720811,Mirebalais,HT,18.83,-72.1,75.2,94,27,8.05,1573884471
1120,1651591,Amahai,ID,-3.31,129.0,82.94,71,54,6.78,1573884472
1121,1056151,Mananjary,MG,-19.16,46.8,74.17,64,45,6.91,1573884472
1122,3842670,Olavarria,AR,-36.89,-60.32,70.0,64,4,1.01,1573884472
1123,5897321,Wellington,CA,44.87,-63.61,43.0,93,75,8.05,1573884472
1124,2640076,Port Bannatyne,GB,55.86,-5.08,32.0,92,100,4.7,1573884472
1125,4870380,Ottumwa,US,41.02,-92.41,35.6,80,1,4.7,1573884472
1126,3403127,Capitao Poco,BR,-1.75,-47.06,71.76,95,0,2.64,1573884472
1127,1495626,Pangody,RU,65.85,74.49,2.8,94,100,19.71,1573884472
1128,2120334,Tymovskoye,RU,50.85,142.66,9.59,92,100,8.37,1573884472
1129,6138501,Saint-Augustin,CA,45.63,-73.98,17.01,56,5,4.7,1573884472
1130,2258378,Loandjili,CG,-4.77,11.87,75.2,100,75,4.7,1573884472
1131,3516499,Suchiapa,MX,16.62,-93.08,71.6,73,75,27.51,1573884472
1132,1630639,Pringsewu,ID,-5.36,104.98,93.42,38,28,3.02,1573884473
1133,2798298,Fleurus,BE,50.48,4.55,35.6,90,70,6.93,1573884473
1134,3461425,Ilhabela,BR,-23.78,-45.36,71.4,82,55,10.51,1573884473
1135,1150007,Trang,TH,7.56,99.61,90.36,55,87,4.74,1573884473
1136,6148373,Sioux Lookout,CA,50.1,-91.92,17.6,56,90,6.93,1573884311
1137,548946,Khvorostyanka,RU,52.62,48.95,33.62,68,67,8.34,1573884473
1138,5309842,Prescott,US,34.54,-112.47,55.0,49,1,5.82,1573884327
1139,3450063,Santa Maria da Vitoria,BR,-13.39,-44.19,70.25,83,83,3.29,1573884473
1140,3665098,Barcelos,BR,-0.97,-62.93,74.19,95,61,1.1,1573884473
1141,1645528,Denpasar,ID,-8.65,115.22,87.8,70,40,8.05,1573884415
1142,2398269,Moanda,GA,-1.55,13.22,71.15,97,100,0.38,1573884474
1143,5993072,Kitimat,CA,54.02,-128.69,42.8,100,75,9.17,1573884474
1144,1259395,Porbandar,IN,21.64,69.61,86.0,55,20,8.05,1573884474
1145,1799869,Nanning,CN,22.83,108.3,77.0,73,40,11.18,1573884474
1146,6160806,Sylvan Lake,CA,52.31,-114.09,37.4,86,75,11.41,1573884474
1147,2962450,Moville,IE,55.18,-7.05,34.84,91,100,2.06,1573884474
1148,940424,Wesselsbron,ZA,-27.85,26.36,68.0,58,0,6.93,1573884474
1149,719640,Jaszladany,HU,47.37,20.17,53.6,87,22,18.34,1573884474
1150,2345094,Daura,NG,13.04,8.32,74.77,20,99,7.63,1573884474
1151,2028028,Aksha,RU,50.28,113.29,13.57,39,92,5.7,1573884474
1152,4229476,Warner Robins,US,32.62,-83.6,45.0,87,90,12.75,1573884474
1153,1215350,Bireun,ID,5.2,96.7,79.43,70,74,5.1,1573884474
1154,2059470,Victor Harbor,AU,-35.55,138.62,66.0,42,35,21.92,1573884474
1155,1264976,Leh,IN,34.16,77.58,20.14,76,100,2.44,1573884475
1156,3019265,Evreux,FR,49.02,1.15,39.99,93,90,8.05,1573884475
1157,4726440,San Juan,US,26.19,-98.16,48.2,81,1,3.36,1573884430
1158,964406,Port Shepstone,ZA,-30.74,30.45,67.32,86,76,3.85,1573884475
1159,2223527,Mfou,CM,3.72,11.64,71.6,94,75,3.36,1573884536
1160,739636,Sile,TR,41.18,29.61,57.2,82,0,8.05,1573884536
1161,493201,Shuyskoye,RU,59.37,41.03,31.06,93,100,3.8,1573884536
1162,2446267,Dakoro,NE,14.51,6.76,76.89,18,0,7.29,1573884536
1163,3391889,Pitimbu,BR,-7.47,-34.81,78.8,78,40,6.93,1573884536
1164,893485,Chiredzi,ZW,-21.05,31.67,77.83,58,0,9.44,1573884537
1165,3421982,Maniitsoq,GL,65.42,-52.9,29.52,73,100,12.75,1573884537
1166,3359638,Walvis Bay,NA,-22.95,14.51,61.0,93,100,4.7,1573884537
1167,6957998,Xiongzhou,CN,32.34,118.83,82.0,29,45,4.47,1573884537
1168,3397851,Itupiranga,BR,-5.13,-49.33,77.0,94,0,1.9,1573884537
1169,6087843,New Waterford,CA,46.25,-60.08,42.01,80,90,11.41,1573884537
1170,2082539,Merauke,ID,-8.49,140.4,86.38,64,74,11.03,1573884537
1171,214389,Kaniama,CD,-7.57,24.18,73.31,91,96,2.13,1573884537
1172,1695804,Tambongon,PH,7.26,125.66,91.4,55,20,9.17,1573884537
1173,2019323,Nerchinskiy Zavod,RU,51.31,119.61,7.93,31,0,7.36,1573884537
1174,3461525,Ibotirama,BR,-12.18,-43.22,77.32,43,74,0.83,1573884444
1175,529073,Marks,RU,51.71,46.75,30.99,86,0,3.0,1573884537
1176,2214433,Nalut,LY,31.86,10.98,63.14,19,100,15.14,1573884537
1177,3115739,Naron,ES,43.52,-8.15,46.99,100,20,5.82,1573884537
1178,1789789,Bianzhuang,CN,39.44,112.12,45.7,18,81,2.44,1573884538
1179,2128975,Nemuro,JP,43.32,145.57,39.2,35,40,16.11,1573884538
1180,2562247,Marsaxlokk,MT,35.84,14.54,70.0,73,100,18.34,1573884538
1181,161616,Balkanabat,TM,39.51,54.36,43.09,52,19,13.8,1573884538
1182,1293960,Taunggyi,MM,20.78,97.03,81.41,45,0,1.9,1573884538
1183,988698,Knysna,ZA,-34.04,23.05,64.4,93,90,4.7,1573884538
1184,2120048,Ust-Nera,RU,64.57,143.24,-7.46,98,78,6.29,1573884538
1185,3441665,Minas,UY,-34.38,-55.24,54.84,89,33,9.95,1573884538
1186,5889745,Hauterive,CA,49.18,-68.27,18.0,66,75,18.34,1573884538
1187,2186313,Napier,NZ,-39.49,176.92,73.0,45,58,8.99,1573884539
1188,1710590,Ipilan,PH,8.84,117.9,82.47,74,39,4.76,1573884539
1189,3694112,Paita,PE,-5.09,-81.11,66.29,82,100,7.38,1573884539
1190,6359910,Aller,ES,43.12,-5.58,46.99,98,87,9.17,1573884539
1191,2037485,Erenhot,CN,43.65,111.97,40.41,31,83,11.72,1573884539
1192,3572924,Alice Town,BS,25.72,-79.3,76.39,81,99,15.57,1573884515
1193,1152432,Lang Suan,TH,9.95,99.07,84.72,62,85,9.57,1573884539
1194,471607,Voskresenskoye,RU,56.84,45.43,32.05,83,92,8.88,1573884539
1195,676447,Gurbanesti,RO,44.38,26.7,51.01,100,90,3.36,1573884539
1196,1650233,Banjar,ID,-7.37,108.54,89.04,45,35,8.57,1573884540
1197,2409914,Bonthe,SL,7.53,-12.5,76.89,86,100,3.47,1573884540
1198,610613,Aksay,KZ,51.17,53.01,34.65,50,21,3.38,1573884540
1199,2467813,Rafraf,TN,37.19,10.18,60.8,87,40,3.36,1573884540
1200,5523074,Hereford,US,34.82,-102.4,45.0,60,1,6.93,1573884540
1201,3654410,Manta,EC,-0.95,-80.73,75.2,78,75,6.93,1573884498
1202,1624987,Indramayu,ID,-4.05,103.78,95.14,34,65,3.29,1573884540
1203,2037799,Datong,CN,40.09,113.3,49.64,18,84,1.41,1573884540
1204,5536630,Cedar City,US,37.68,-113.06,39.2,44,1,4.7,1573884540
1205,6164499,The Pas,CA,53.82,-101.24,23.0,79,100,11.41,1573884540
1206,2544571,Kenitra,MA,34.26,-6.57,55.4,58,75,8.05,1573884540
1207,2028078,Aginskoye,RU,51.11,114.54,13.82,35,0,5.08,1573884540
1208,3601403,Saba,HN,15.52,-86.23,66.52,97,88,1.14,1573884605
1209,5906757,Bow Island,CA,49.87,-111.38,45.0,70,75,23.04,1573884605
1210,5059429,Key West,US,47.93,-96.78,30.99,74,1,10.29,1573884605
1211,2025099,Dauriya,RU,49.93,116.85,12.94,50,0,7.38,1573884605
1212,3867427,Mayor Pablo Lagerenza,PY,-19.93,-60.77,70.68,61,93,0.4,1573884605
1213,1805953,Jiaxing,CN,30.76,120.75,78.8,31,11,4.47,1573884605
1214,5223593,Newport,US,41.49,-71.31,42.8,55,1,8.05,1573884605
1215,1280957,Jiuquan,CN,39.73,98.49,34.14,30,98,9.22,1573884605
1216,3470177,Bela Vista,BR,-22.11,-56.53,65.53,57,16,1.5,1573884606
1217,3580477,West Bay,KY,19.37,-81.42,78.01,86,3,1.1,1573884606
1218,6164831,Thessalon,CA,46.26,-83.55,10.4,85,1,4.09,1573884606
1219,3093739,Lebork,PL,54.54,17.75,48.0,100,90,14.99,1573884606
1220,3996472,Mascota,MX,20.53,-104.79,77.0,83,75,2.24,1573884606
1221,3173160,Mondragone,IT,41.11,13.89,64.0,93,75,5.82,1573884606
1222,485351,Syamzha,RU,60.02,41.06,30.72,94,100,4.21,1573884606
1223,1684462,Tagcatong,PH,9.0,125.26,85.3,64,59,9.15,1573884606
1224,610298,Beyneu,KZ,45.32,55.19,34.48,66,0,8.01,1573884606
1225,5210117,Saint Marys,US,41.43,-78.56,34.0,74,90,8.05,1573884606
1226,2313002,Matadi,CD,-5.83,13.46,74.17,94,100,4.38,1573884607
1227,2963902,Granard,IE,53.78,-7.49,34.12,95,100,1.61,1573884607
1228,3625710,Upata,VE,8.02,-62.41,69.93,97,2,2.64,1573884607
1229,3601402,Savannah Bight,HN,16.45,-85.85,82.15,73,73,11.52,1573884607
1230,702421,Zaozerne,UA,51.37,23.94,45.27,89,45,10.69,1573884607
1231,3104707,Villaviciosa,ES,43.48,-5.43,46.99,87,75,12.75,1573884607
1232,1785961,Heihe,CN,33.22,106.45,57.02,62,55,3.42,1573884607
1233,2160735,Lakes Entrance,AU,-37.88,147.99,66.99,39,10,5.99,1573884607
1234,608271,Shubarkuduk,KZ,49.15,56.49,32.14,44,0,5.82,1573884607
1235,544318,Kosa,RU,59.94,54.99,31.57,93,100,7.34,1573884607
1236,2019118,Nizhniy Tsasuchey,RU,50.52,115.13,16.16,31,0,5.41,1573884607
1237,3472473,Alto Araguaia,BR,-17.32,-53.22,66.06,94,100,1.86,1573884607
1238,1525988,Ayagoz,KZ,47.96,80.43,4.37,66,18,10.33,1573884608
1239,2823533,Templin,DE,53.12,13.5,48.0,93,75,9.17,1573884608
1240,211647,Lodja,CD,-3.52,23.6,73.35,95,100,2.01,1573884608
1241,69559,Zabid,YE,14.2,44.5,62.94,39,0,5.06,1573884608
1242,3996234,Lazaro Cardenas,MX,28.39,-105.62,46.99,83,2,1.01,1573884608
1243,2036892,Hohhot,CN,40.81,111.65,46.4,24,20,2.24,1573884608
